[{"borough":"Bronx","councildist":8,"food_scrap_drop_off_site":"Brook Park","hours_from":"6pm","hours_to":"10am","latitude":40.8096008301,"location":"494 East 141 St.","longitude":-73.9187011719,"ntaname":"Mott Haven-Port Morris","operation_day":"Saturday","open_months":"Year Round","serviced_by":"Brook Park","borocd":201,"ct2010":4000,"zip_code":10454,"website":null,"notes":null},{"borough":"Bronx","councildist":16,"food_scrap_drop_off_site":"OPENING JULY 10: 170 Farmstand","hours_from":"05:30 PM","hours_to":"02:30 PM","latitude":40.8399848938,"location":"Townsend Ave & 170 St, Bronx","longitude":-73.9168167114,"ntaname":"West Concourse","operation_day":"Wednesdays","open_months":"Seasonal Market, July-November","serviced_by":"GrowNYC","borocd":204,"ct2010":223,"zip_code":10452,"website":"https:\/\/www.grownyc.org\/compost\/locations; https:\/\/newsettlement.org\/food\/170farmstand\/","notes":null},{"borough":"Manhattan","councildist":3,"food_scrap_drop_off_site":"Hudson Blvd Park","hours_from":"06:00 PM","hours_to":"10:00 AM","latitude":40.7555541992,"location":"5 Hudson Blvd East","longitude":-74.0003509521,"ntaname":"Hudson Yards-Chelsea-Flatiron-Union Square","operation_day":"Thursdays","open_months":"Year Round","serviced_by":"Hudson Yards\/ Hell's Kitchen Alliance","borocd":104,"ct2010":99,"zip_code":10001,"website":"hyhalliance.org","notes":null},{"borough":"Staten Island","councildist":49,"food_scrap_drop_off_site":"Olivet Heavenly Harvest","hours_from":"01:00 PM","hours_to":"10:00 AM","latitude":40.6301994324,"location":"97 Myrtle Avenue, Staten Island, NY","longitude":-74.1159667969,"ntaname":"New Brighton-Silver Lake","operation_day":"Saturdays","open_months":"Seasonal, March-November","serviced_by":"Olivet Presbyterian Church","borocd":501,"ct2010":4006,"zip_code":10310,"website":"www.olivetcares.org","notes":null},{"borough":"Brooklyn","councildist":43,"food_scrap_drop_off_site":"4th Avenue Presbyterian Church","hours_from":"12:00 PM","hours_to":"Dawn","latitude":40.635471344,"location":"6753 4th Avenue","longitude":-74.0227966309,"ntaname":"Bay Ridge","operation_day":"Saturdays","open_months":"Year Round","serviced_by":"4th Avenue Presbyterian Church","borocd":310,"ct2010":1004,"zip_code":11220,"website":"http:\/\/www.fourthavenuepresbyterian.org\/","notes":null},{"borough":"Brooklyn","councildist":45,"food_scrap_drop_off_site":"Wyckoff Farmhouse Museum","hours_from":"04:00 PM","hours_to":"11:00 AM","latitude":40.6443977356,"location":"5816 Clarendon Rd","longitude":-73.9207382202,"ntaname":"Rugby-Remsen Village","operation_day":"Fridays","open_months":"Year Round","serviced_by":"Wyckoff Farmhouse Museum","borocd":317,"ct2010":3000,"zip_code":11203,"website":"myckoffmuseum.org","notes":null},{"borough":"Manhattan","councildist":10,"food_scrap_drop_off_site":"OPEN FOR SEASON: Fort Washington Greenmarket","hours_from":"3pm","hours_to":"8am","latitude":40.8421554565,"location":"168th Street at Fort Washington,New York,NY 10032","longitude":-73.942276001,"ntaname":"Washington Heights South","operation_day":"Tuesday","open_months":"Seasonal Market, June-November","serviced_by":"GrowNYC","borocd":112,"ct2010":251,"zip_code":10032,"website":"http:\/\/www.grownyc.org\/compost\/locations","notes":null},{"borough":"Manhattan","councildist":2,"food_scrap_drop_off_site":"DeColores Community Yard","hours_from":"dusk","hours_to":"dawn","latitude":40.7254371643,"location":"313 E 8th St","longitude":-73.9797134399,"ntaname":"Lower East Side","operation_day":"Everyday","open_months":"Year Round","serviced_by":"Loisaida United Neighborhood Gardens (LUNGS)","borocd":103,"ct2010":2000,"zip_code":10009,"website":"http:\/\/www.lungsnyc.org\/","notes":null},{"borough":"Bronx","councildist":17,"food_scrap_drop_off_site":"Mary Mitchell Center","hours_from":"06:00 PM","hours_to":"10:00 AM","latitude":40.8449401855,"location":"2007 Mapes Ave, Bronx 10460 at E 178th St","longitude":-73.8874130249,"ntaname":"East Tremont","operation_day":"Monday","open_months":"Year Round- following the DOE calendar. Please look at https:\/\/www.schools.nyc.gov\/calendar for closures.","serviced_by":"Mary Mitchell Center","borocd":206,"ct2010":2001,"zip_code":10460,"website":"http:\/\/themarymitchellfyc.org\/","notes":null},{"borough":"Manhattan","councildist":6,"food_scrap_drop_off_site":"B'nai Jeshurun Community House","hours_from":"9pm","hours_to":"7am","latitude":40.7903747559,"location":"270 West 89th Street","longitude":-73.9759979248,"ntaname":"Upper West Side","operation_day":"Monday","open_months":"Year Round","serviced_by":"B'nai Jeshrun","borocd":107,"ct2010":4001,"zip_code":10024,"website":"www.bj.org","notes":null},{"borough":"Manhattan","councildist":2,"food_scrap_drop_off_site":"Union Square Greenmarket","hours_from":"5pm","hours_to":"8am","latitude":40.7368202209,"location":"E 17th St & Union Square E, New York, NY","longitude":-73.9900436401,"ntaname":"Hudson Yards-Chelsea-Flatiron-Union Square","operation_day":"Saturday","open_months":"Year Round","serviced_by":"NYC Compost Project","borocd":105,"ct2010":50,"zip_code":10003,"website":"http:\/\/www.grownyc.org\/compost\/locations","notes":null},{"borough":"Bronx","councildist":11,"food_scrap_drop_off_site":"Lehman College","hours_from":"10:00 AM","hours_to":"08:00 AM","latitude":40.8755874634,"location":"Lehman Quad near Shuster Hall","longitude":-73.8940734863,"ntaname":"Van Cortlandt Village","operation_day":"Mondays","open_months":"Year Round","serviced_by":"Serviced\/Managed by Volunteers from Lehman College","borocd":207,"ct2010":409,"zip_code":10468,"website":null,"notes":null},{"borough":"Manhattan","councildist":8,"food_scrap_drop_off_site":"116th Street","hours_from":"10:30am","hours_to":"7:30am","latitude":40.7986221313,"location":"116th & Lexington Ave - NW Corner","longitude":-73.941619873,"ntaname":"East Harlem North","operation_day":"Wednesday","open_months":"Year Round","serviced_by":"GrowNYC","borocd":111,"ct2010":182,"zip_code":10029,"website":"https:\/\/www.grownyc.org\/compost-go","notes":null},{"borough":"Manhattan","councildist":6,"food_scrap_drop_off_site":"Central Park North (110th St)","hours_from":"10:15am","hours_to":"7am","latitude":40.7982444763,"location":"110th, St. Nicholas, & Malcolm X - NW Corner (Public Plaza)","longitude":-73.9524612427,"ntaname":"Central Harlem South","operation_day":"Wednesday","open_months":"Year Round","serviced_by":"GrowNYC","borocd":110,"ct2010":186,"zip_code":10026,"website":"https:\/\/www.grownyc.org\/compost-go","notes":null},{"borough":"Brooklyn","councildist":42,"food_scrap_drop_off_site":"UCC Youth Farm","hours_from":"06:00 PM","hours_to":"09:00 AM","latitude":40.6649093628,"location":"613 New Lots Avenue","longitude":-73.8867263794,"ntaname":"East New York","operation_day":"Tuesdays","open_months":"Year Round","serviced_by":"East New York Farms!","borocd":305,"ct2010":2004,"zip_code":11207,"website":"https:\/\/ucceny.org\/enyf\/","notes":null},{"borough":"Manhattan","councildist":8,"food_scrap_drop_off_site":"Pleasant Village Community Garden","hours_from":"dusk","hours_to":"dawn","latitude":40.7966194153,"location":"342 Pleasant Ave.","longitude":-73.9315948486,"ntaname":"East Harlem North","operation_day":"Everyday","open_months":"Year Round","serviced_by":"Pleasant Village Community Garden","borocd":111,"ct2010":3001,"zip_code":10035,"website":"m.facebook.com\/pleasantvillagecommunitygarden","notes":null},{"borough":"Manhattan","councildist":9,"food_scrap_drop_off_site":"Harlem Grown","hours_from":"3pm","hours_to":"11am","latitude":40.8138046265,"location":"118 W 134th St","longitude":-73.942817688,"ntaname":"Central Harlem North-Polo Grounds","operation_day":"Sunday","open_months":"Year Round","serviced_by":"Harlem Grown","borocd":110,"ct2010":1000,"zip_code":10030,"website":"http:\/\/www.harlemgrown.org\/","notes":null},{"borough":"Manhattan","councildist":9,"food_scrap_drop_off_site":"Garden of Love","hours_from":"6pm","hours_to":"4pm","latitude":40.804397583,"location":"302 West 116 Street","longitude":-73.9560470581,"ntaname":"Central Harlem South","operation_day":"Tuesday","open_months":"Year Round","serviced_by":"Garden of Love","borocd":110,"ct2010":2000,"zip_code":10026,"website":null,"notes":null},{"borough":"Staten Island","councildist":49,"food_scrap_drop_off_site":"Compost Demonstration Site at Snug Harbor Cultural Center & Botanical Garden","hours_from":"Dusk","hours_to":"Dawn","latitude":40.6440505981,"location":"Compost Demonstration Site at Snug Harbor Cultural Center & Botanical Garden\n1000 Richmond Terrace","longitude":-74.1017532349,"ntaname":"West New Brighton-New Brighton-St. George","operation_day":"Everyday","open_months":"Year Round","serviced_by":"NYC Compost Project","borocd":501,"ct2010":3005,"zip_code":10310,"website":"http:\/\/snug-harbor.org\/compost\/","notes":null},{"borough":"Manhattan","councildist":3,"food_scrap_drop_off_site":"Commuter Composting at 23rd Street C\/E (Closed Thursday, 7\/4 - Independence Day)","hours_from":"11am","hours_to":"8am","latitude":40.7452926636,"location":"West 23rd Street and 8th Avenue -SW Corner, New York, NY 10011","longitude":-73.9984893799,"ntaname":"Hudson Yards-Chelsea-Flatiron-Union Square","operation_day":"Tuesday","open_months":"Year Round","serviced_by":"NYC Compost Project","borocd":104,"ct2010":91,"zip_code":10011,"website":"www.lesecologycenter.org","notes":null},{"borough":"Brooklyn","councildist":38,"food_scrap_drop_off_site":"Red Hook Community Farm","hours_from":"01:00 PM","hours_to":"10:30 AM","latitude":40.6722259521,"location":"Otsego Street and Beard Street","longitude":-74.0110092163,"ntaname":"Carroll Gardens-Columbia Street-Red Hook","operation_day":"Saturdays","open_months":"Year Round","serviced_by":"NYC Compost Project","borocd":306,"ct2010":53,"zip_code":11231,"website":null,"notes":null},{"borough":"Manhattan","councildist":7,"food_scrap_drop_off_site":"The Brotherhood\/Sister Sol","hours_from":"7pm","hours_to":"11am","latitude":40.8243026733,"location":"512 West 143rd Street","longitude":-73.9500045776,"ntaname":"Hamilton Heights","operation_day":"Wednesday","open_months":"Year Round","serviced_by":"The Brotherhood\/Sister Sol","borocd":109,"ct2010":2001,"zip_code":10031,"website":"https:\/\/brotherhood-sistersol.org\/","notes":null},{"borough":"Brooklyn","councildist":34,"food_scrap_drop_off_site":"Scholes Street Children's Garden","hours_from":null,"hours_to":null,"latitude":40.7084770203,"location":"134 Scholes St, Brooklyn, NY 11206","longitude":-73.9443054199,"ntaname":"East Williamsburg","operation_day":"Saturdays","open_months":"Year Round","serviced_by":"Scholes Street Children's Garden","borocd":301,"ct2010":2000,"zip_code":11206,"website":"www.nyrp.org","notes":null},{"borough":"Manhattan","councildist":7,"food_scrap_drop_off_site":"The Brotherhood\/Sister Sol","hours_from":"7pm","hours_to":"11am","latitude":40.8243026733,"location":"512 West 143rd Street","longitude":-73.9500045776,"ntaname":"Hamilton Heights","operation_day":"Tuesday","open_months":"Year Round","serviced_by":"The Brotherhood\/Sister Sol","borocd":109,"ct2010":2001,"zip_code":10031,"website":"https:\/\/brotherhood-sistersol.org\/","notes":null},{"borough":"Bronx","councildist":17,"food_scrap_drop_off_site":"PSS - Andrew Jackson Senior Center","hours_from":"1pm","hours_to":"9am","latitude":40.8223304749,"location":"765 Courtlandt Avenue","longitude":-73.918258667,"ntaname":"Melrose South-Mott Haven North","operation_day":"Monday","open_months":"Year Round","serviced_by":"PSS - Andrew Jackson Senior Center","borocd":201,"ct2010":3000,"zip_code":10451,"website":"https:\/\/www.grownyc.org\/compost\/locations","notes":null},{"borough":"Manhattan","councildist":1,"food_scrap_drop_off_site":"Tribeca Greenmarket","hours_from":"1pm","hours_to":"8am","latitude":40.7163009644,"location":"Greenwich Street at Chambers Street,New York,NY","longitude":-74.0109634399,"ntaname":"Battery Park City-Lower Manhattan","operation_day":"Wednesday","open_months":"Year Round","serviced_by":"GrowNYC, NYC Dept of Sanitation & Community Partners","borocd":101,"ct2010":21,"zip_code":10007,"website":"http:\/\/www.grownyc.org\/compost\/locations","notes":null},{"borough":"Manhattan","councildist":3,"food_scrap_drop_off_site":"Commuter Composting at 23rd Street C\/E (Closed Thursday, 7\/4 - Independence Day)","hours_from":"11am","hours_to":"8am","latitude":40.7452926636,"location":"West 23rd Street and 8th Avenue -SW Corner, New York, NY 10011","longitude":-73.9984893799,"ntaname":"Hudson Yards-Chelsea-Flatiron-Union Square","operation_day":"Thursday","open_months":"Year Round","serviced_by":"NYC Compost Project","borocd":104,"ct2010":91,"zip_code":10011,"website":"www.lesecologycenter.org","notes":null},{"borough":"Manhattan","councildist":3,"food_scrap_drop_off_site":"Mathews-Palmer Park","hours_from":"9pm","hours_to":"7am","latitude":40.7613945007,"location":"437 W 45 St","longitude":-73.9927368164,"ntaname":"Clinton","operation_day":"Everyday","open_months":"Seasonal, June - November","serviced_by":"NYC Parks","borocd":104,"ct2010":6000,"zip_code":10036,"website":"https:\/\/www.nycgovparks.org\/parks\/matthews-palmer-playground","notes":null},{"borough":"Brooklyn","councildist":41,"food_scrap_drop_off_site":"Iso Student Farm","hours_from":"12:00 PM","hours_to":"09:00 AM","latitude":40.66746521,"location":"514 Rockaway Avenue","longitude":-73.910484314,"ntaname":"Brownsville","operation_day":"Wednesdays","open_months":"Seasonal","serviced_by":"Isabahlia LOE Foundation","borocd":316,"ct2010":1005,"zip_code":11212,"website":"www.isabahlialoeinc.org","notes":null},{"borough":"Manhattan","councildist":2,"food_scrap_drop_off_site":"CLOSED FOR SEASON: Peach Tree Garden","hours_from":"6pm","hours_to":"2pm","latitude":40.7216758728,"location":"236 East 2nd Street","longitude":-73.9820175171,"ntaname":"Lower East Side","operation_day":"Wednesday","open_months":"Seasonal, April-October","serviced_by":"Peach Tree Garden","borocd":103,"ct2010":1001,"zip_code":10009,"website":null,"notes":null},{"borough":"Manhattan","councildist":9,"food_scrap_drop_off_site":"FACES NY at 116th","hours_from":"2pm","hours_to":"10am","latitude":40.8021583557,"location":"114 West 116th, 10026","longitude":-73.9507446289,"ntaname":"Central Harlem South","operation_day":"Wednesday","open_months":"Year Round","serviced_by":"FACES NY","borocd":110,"ct2010":2000,"zip_code":10026,"website":"www.facesny.org","notes":null},{"borough":"Manhattan","councildist":2,"food_scrap_drop_off_site":"Commuter Composting at 1st Ave and 1st St.","hours_from":"11am","hours_to":"8am","latitude":40.7229347229,"location":"First Avenue between Houston and First Street (West Side)","longitude":-73.9886398315,"ntaname":"Chinatown","operation_day":"Monday","open_months":"Year Round","serviced_by":"NYC Compost Project","borocd":103,"ct2010":3001,"zip_code":10002,"website":"www.lesecologycenter.org","notes":null},{"borough":"Bronx","councildist":17,"food_scrap_drop_off_site":"The Point CDC","hours_from":"6pm","hours_to":"10am","latitude":40.8182220459,"location":"940 Garrison Avenue","longitude":-73.8904647827,"ntaname":"Hunts Point","operation_day":"Monday","open_months":"Year Round","serviced_by":"The Point CDC","borocd":202,"ct2010":2005,"zip_code":10474,"website":"thepoint.org","notes":null},{"borough":"Queens","councildist":20,"food_scrap_drop_off_site":"Queens Botanical Garden Public Food Scrap Drop-Off","hours_from":"4:30 PM(Nov-Mar),06:00PM(Apr-Oct)","hours_to":"08:00 AM","latitude":40.7517318726,"location":"Parking Garden at QBG\n42-80 Crommelin Avenue, Flushing, NY 11355","longitude":-73.8300018311,"ntaname":"Flushing","operation_day":"Sundays","open_months":"Year Round","serviced_by":"NYC Compost Project","borocd":407,"ct2010":1004,"zip_code":11355,"website":"https:\/\/queensbotanical.org","notes":null},{"borough":"Queens","councildist":25,"food_scrap_drop_off_site":"JH Scraps","hours_from":"01:00 PM","hours_to":"11:00 AM","latitude":40.7498626709,"location":"35-20 69th Street","longitude":-73.8963012695,"ntaname":"Jackson Heights","operation_day":"Saturdays","open_months":"Year Round","serviced_by":"JH Scraps","borocd":403,"ct2010":4001,"zip_code":11377,"website":null,"notes":null},{"borough":"Manhattan","councildist":4,"food_scrap_drop_off_site":"OPEN FOR SEASON: Bryant Park","hours_from":"2:30pm","hours_to":"12:30pm","latitude":40.7541770935,"location":"6th Avenue and 41st Sreet","longitude":-73.9845962524,"ntaname":"Midtown-Midtown South","operation_day":"Thursday","open_months":"Seasonal, May-November","serviced_by":"Bryant Park Corporation","borocd":105,"ct2010":84,"zip_code":10018,"website":"http:\/\/bryantpark.org\/programs\/waste-sorting-concierge","notes":"For schedule, holiday, and inclement weather updates, please visit: http:\/\/bryantpark.org\/programs\/waste-sorting-concierge"},{"borough":"Manhattan","councildist":9,"food_scrap_drop_off_site":"Garden of Love","hours_from":"6pm","hours_to":"4pm","latitude":40.804397583,"location":"302 West 116 Street","longitude":-73.9560470581,"ntaname":"Central Harlem South","operation_day":"Thursday","open_months":"Year Round","serviced_by":"Garden of Love","borocd":110,"ct2010":2000,"zip_code":10026,"website":null,"notes":null},{"borough":"Manhattan","councildist":3,"food_scrap_drop_off_site":"Abingdon Square Greenmarket","hours_from":"1pm","hours_to":"8am","latitude":40.7375488281,"location":"West 12 Street and 8 Avenue,New York,NY,10014","longitude":-74.0048294067,"ntaname":"West Village","operation_day":"Saturday","open_months":"Year Round","serviced_by":"GrowNYC","borocd":102,"ct2010":77,"zip_code":10014,"website":"http:\/\/www.grownyc.org\/compost\/locations","notes":null},{"borough":"Brooklyn","councildist":40,"food_scrap_drop_off_site":"Parkside","hours_from":"10:00 AM","hours_to":"07:30 AM","latitude":40.6548805237,"location":"Ocean Ave & Parkside Ave, Brooklyn, NY 11226","longitude":-73.9618835449,"ntaname":"park-cemetery-etc-Brooklyn","operation_day":"Thursdays","open_months":"Year Round","serviced_by":"GrowNYC","borocd":314,"ct2010":50803,"zip_code":11226,"website":"https:\/\/www.grownyc.org\/greenmarket\/brooklyn\/parkside","notes":null},{"borough":"Brooklyn","councildist":42,"food_scrap_drop_off_site":"OPEN FOR SEASON: Pink Houses Community Farm","hours_from":"12:00 PM","hours_to":"10:00 AM","latitude":40.6682929993,"location":"1257 Loring Avenue","longitude":-73.864440918,"ntaname":"East New York","operation_day":"Tuesdays","open_months":"Seasonal Market, June-November","serviced_by":"East New York Farms!","borocd":305,"ct2010":1000,"zip_code":11208,"website":"https:\/\/ucceny.org\/enyf\/","notes":null},{"borough":"Queens","councildist":26,"food_scrap_drop_off_site":"Sunny Compost","hours_from":"04:00 PM","hours_to":"02:00 PM","latitude":40.7500457764,"location":"38-63-38-1 50th St, Woodside, NY 11377","longitude":-73.9137573242,"ntaname":"Hunters Point-Sunnyside-West Maspeth","operation_day":"Sundays","open_months":"Year Round","serviced_by":"Sunny Compost","borocd":402,"ct2010":169,"zip_code":11104,"website":"www.sunnycompost.org","notes":null},{"borough":"Manhattan","councildist":6,"food_scrap_drop_off_site":"B'nai Jeshurun Community House","hours_from":"9pm","hours_to":"7am","latitude":40.7903747559,"location":"270 West 89th Street","longitude":-73.9759979248,"ntaname":"Upper West Side","operation_day":"Tuesday","open_months":"Year Round","serviced_by":"B'nai Jeshrun","borocd":107,"ct2010":4001,"zip_code":10024,"website":"www.bj.org","notes":null},{"borough":"Manhattan","councildist":1,"food_scrap_drop_off_site":"East River Park Compost Yard","hours_from":"Dusk","hours_to":"Dawn","latitude":40.7109947205,"location":"East River Park Compost Park (coordinates: 40.711055, -73.978847)","longitude":-73.9790267944,"ntaname":"Lower East Side","operation_day":"Everyday","open_months":"Year Round","serviced_by":"NYC Compost Project","borocd":103,"ct2010":202,"zip_code":10002,"website":null,"notes":null},{"borough":"Queens","councildist":25,"food_scrap_drop_off_site":"Commuter Composting at Grand Ave Newtown M\/R","hours_from":"09:30 AM","hours_to":"07:30 AM","latitude":40.7371482849,"location":"86-55 Broadway, Queens, NY 11373","longitude":-73.8770904541,"ntaname":"Elmhurst","operation_day":"Mondays","open_months":"Year Round","serviced_by":"NYC Compost Project","borocd":404,"ct2010":2004,"zip_code":11373,"website":"https:\/\/queensbotanical.org\/farmandcompost\/","notes":null},{"borough":"Bronx","councildist":14,"food_scrap_drop_off_site":"Bronx Cooperative Development Initiative","hours_from":"4pm","hours_to":"10am","latitude":40.8614273071,"location":"2431 Morris Ave","longitude":-73.9002380371,"ntaname":"Fordham South","operation_day":"Wednesday","open_months":"Year Round","serviced_by":"Commonwise Education\/ Bronx Cooperative Development Initiative","borocd":205,"ct2010":1000,"zip_code":10468,"website":"commonwise.nyc","notes":null},{"borough":"Manhattan","councildist":7,"food_scrap_drop_off_site":"Mobilization for Change Community Garden","hours_from":"dusk","hours_to":"dawn","latitude":40.7997055054,"location":"955 Columbus Ave","longitude":-73.9621810913,"ntaname":"Morningside Heights","operation_day":"Everyday","open_months":"Year Round","serviced_by":"Mobilization for Change Community Garden","borocd":107,"ct2010":3001,"zip_code":10025,"website":null,"notes":null},{"borough":"Bronx","councildist":16,"food_scrap_drop_off_site":"161st Street - Yankee Stadium","hours_from":"11:15am","hours_to":"7:30am","latitude":40.8278121948,"location":"161st, River Ave - NE Corner","longitude":-73.9259262085,"ntaname":"West Concourse","operation_day":"Friday","open_months":"Year Round","serviced_by":"GrowNYC","borocd":204,"ct2010":63,"zip_code":10451,"website":"https:\/\/www.grownyc.org\/compost-go","notes":null},{"borough":"Bronx","councildist":17,"food_scrap_drop_off_site":"Kelly Street Garden","hours_from":"2pm","hours_to":"10am","latitude":40.8201026917,"location":"924 Kelly Street","longitude":-73.8957290649,"ntaname":"Longwood","operation_day":"Saturday","open_months":"Seasonal, March-November","serviced_by":"Kelly Street Garden","borocd":202,"ct2010":2002,"zip_code":10459,"website":"https:\/\/www.facebook.com\/kellyst.garden\/","notes":null},{"borough":"Manhattan","councildist":10,"food_scrap_drop_off_site":"OPEN FOR SEASON: Morris- Jumel Community Garden","hours_from":"5pm","hours_to":"12pm","latitude":40.8357772827,"location":"455-457 West 162nd Street","longitude":-73.9391403198,"ntaname":"Washington Heights South","operation_day":"Sunday","open_months":"Seasonal, April-October","serviced_by":"Morris- Jumel Community Garden","borocd":112,"ct2010":2000,"zip_code":10032,"website":"https:\/\/morrisjumelcommunitygarden.wordpress.com\/","notes":null},{"borough":"Manhattan","councildist":9,"food_scrap_drop_off_site":"Harlem Grown","hours_from":"5pm","hours_to":"9am","latitude":40.8138046265,"location":"118 W 134th St","longitude":-73.942817688,"ntaname":"Central Harlem North-Polo Grounds","operation_day":"Tuesday","open_months":"Year Round","serviced_by":"Harlem Grown","borocd":110,"ct2010":1000,"zip_code":10030,"website":"http:\/\/www.harlemgrown.org\/","notes":null},{"borough":"Bronx","councildist":15,"food_scrap_drop_off_site":"OPENING JUNE 25: Poe Park Greenmarket","hours_from":"01:30 PM","hours_to":"08:00 AM","latitude":40.8642158508,"location":"E. 192 St. btwn Grand Concourse and Valentine, Bronx, NY, 10468","longitude":-73.8957977295,"ntaname":"Bedford Park-Fordham North","operation_day":"Tuesdays","open_months":"Seasonal, June-November","serviced_by":"GrowNYC","borocd":207,"ct2010":39901,"zip_code":10458,"website":"http:\/\/www.grownyc.org\/compost\/locations","notes":null},{"borough":"Brooklyn","councildist":43,"food_scrap_drop_off_site":"Bay Ridge Greenmarket","hours_from":"01:00 PM","hours_to":"08:00 AM","latitude":40.6172790527,"location":"3rd Ave & 95th Street, Brooklyn, NY 11209","longitude":-74.0335922241,"ntaname":"BK31","operation_day":"Saturdays","open_months":"Seasonal Market, May - November","serviced_by":"GrowNYC","borocd":310,"ct2010":54,"zip_code":11209,"website":"http:\/\/www.grownyc.org\/compost\/locations","notes":null},{"borough":"Manhattan","councildist":3,"food_scrap_drop_off_site":"Hudson River Park's Pier 76 at W. 34th St.","hours_from":"7pm","hours_to":"7am","latitude":40.7570228577,"location":"Pier 76 at 34th Street and 12th Ave in Hudson River Park's Compost Center","longitude":-74.0049285889,"ntaname":"Hudson Yards-Chelsea-Flatiron-Union Square","operation_day":"Everyday","open_months":"Year Round","serviced_by":"Hudson River Park Trust","borocd":104,"ct2010":99,"zip_code":10001,"website":"https:\/\/www.hudsonriverpark.org\/","notes":null},{"borough":"Brooklyn","councildist":37,"food_scrap_drop_off_site":"OPEN FOR SEASON: Essex Community Garden","hours_from":"07:00 PM","hours_to":"05:00 PM","latitude":40.6802635193,"location":"3030 Fulton Street","longitude":-73.8829803467,"ntaname":"East New York","operation_day":"Wednesdays","open_months":"Seasonal","serviced_by":"Essex Community Garden","borocd":305,"ct2010":2003,"zip_code":11208,"website":"N\/A","notes":null},{"borough":"Manhattan","councildist":3,"food_scrap_drop_off_site":"Hudson River Park's Pier 51 at Horatio St.","hours_from":"7pm","hours_to":"7am","latitude":40.738735199,"location":"Pier 51 at Horatio St. near comfort station","longitude":-74.0096130371,"ntaname":"West Village","operation_day":"Everyday","open_months":"Year Round","serviced_by":"Hudson River Park Trust","borocd":102,"ct2010":79,"zip_code":10014,"website":"https:\/\/www.hudsonriverpark.org\/","notes":null},{"borough":"Manhattan","councildist":8,"food_scrap_drop_off_site":"Lydia's Magic Garden","hours_from":"11:30am","hours_to":"9:30am","latitude":40.8000831604,"location":"1665 Park Avenue, Manhattan 10035\nbetween 117th and 118th Streets","longitude":-73.9422073364,"ntaname":"East Harlem North","operation_day":"Saturday","open_months":"Seasonal, April-October","serviced_by":"GrowNYC","borocd":111,"ct2010":2001,"zip_code":10035,"website":"https:\/\/www.facebook.com\/lydiasmagicgarden\/","notes":null},{"borough":"Bronx","councildist":17,"food_scrap_drop_off_site":"149th St - Grand Concourse","hours_from":"11:15am","hours_to":"7:15am","latitude":40.818561554,"location":"Grand Concourse, 149th Street - SE Corner","longitude":-73.9273147583,"ntaname":"Mott Haven-Port Morris","operation_day":"Friday","open_months":"Year Round","serviced_by":"GrowNYC","borocd":201,"ct2010":51,"zip_code":10451,"website":"https:\/\/www.grownyc.org\/compost-go","notes":null},{"borough":"Manhattan","councildist":9,"food_scrap_drop_off_site":"William B. Washington Memorial Garden","hours_from":"6pm","hours_to":"3pm","latitude":40.8113975525,"location":"321 West 126th Street","longitude":-73.9515151978,"ntaname":"Central Harlem North-Polo Grounds","operation_day":"Wednesday","open_months":"Year Round","serviced_by":"William B. Washington Memorial Garden","borocd":110,"ct2010":1002,"zip_code":10027,"website":null,"notes":null},{"borough":"Staten Island","councildist":51,"food_scrap_drop_off_site":"OPEN FOR SEASON: Staten Island Mall Greenmarket","hours_from":"01:00 PM","hours_to":"08:00 AM","latitude":40.5838050842,"location":"Staten Island Mall, Marsh Ave & Ring Rd, Staten Island, NY 10314","longitude":-74.1612472534,"ntaname":"Todt Hill-Emerson Hill-Heartland Village-Lighthouse Hill","operation_day":"Saturdays","open_months":"Seasonal Market","serviced_by":"GrowNYC","borocd":502,"ct2010":27702,"zip_code":10314,"website":"http:\/\/www.grownyc.org\/compost\/locations","notes":null},{"borough":"Brooklyn","councildist":33,"food_scrap_drop_off_site":"Brooklyn Borough Hall Greenmarket (Closed Thursday, 7\/4 - Independence Day)","hours_from":"02:00 PM","hours_to":"08:00 AM","latitude":40.6937217712,"location":"Court St & Montague St, Brooklyn, NY 11201","longitude":-73.9904556274,"ntaname":"Brooklyn Heights-Cobble Hill","operation_day":"Thursdays","open_months":"Year Round","serviced_by":"GrowNYC","borocd":302,"ct2010":9,"zip_code":11201,"website":"http:\/\/www.grownyc.org\/compost\/locations","notes":null},{"borough":"Brooklyn","councildist":35,"food_scrap_drop_off_site":"7 Ave B\/Q (Closed Wednesday, 7\/3 - Independence Day)","hours_from":"10:00 AM","hours_to":"08:00 AM","latitude":40.6774482727,"location":"Park Pl and Carlton Ave","longitude":-73.9723510742,"ntaname":"Prospect Heights","operation_day":"Wednesdays","open_months":"Year Round","serviced_by":"NYC Compost Project","borocd":308,"ct2010":161,"zip_code":11238,"website":null,"notes":null},{"borough":"Manhattan","councildist":2,"food_scrap_drop_off_site":"Union Square Greenmarket","hours_from":"5pm","hours_to":"8am","latitude":40.7368202209,"location":"E 17th St & Union Square E, New York, NY","longitude":-73.9900436401,"ntaname":"Hudson Yards-Chelsea-Flatiron-Union Square","operation_day":"Friday","open_months":"Year Round","serviced_by":"NYC Compost Project","borocd":105,"ct2010":50,"zip_code":10003,"website":"http:\/\/www.grownyc.org\/compost\/locations","notes":null},{"borough":"Bronx","councildist":11,"food_scrap_drop_off_site":"OPENING JUNE 26: Bainbridge Avenue Community Garden","hours_from":"07:00 PM","hours_to":"04:00 PM","latitude":40.8709259033,"location":"2980 Bainbridge Avenue, Bronx, NY 10458","longitude":-73.8839797974,"ntaname":"Bedford Park-Fordham North","operation_day":"Wednesdays","open_months":"Seasonal Market, June-November","serviced_by":"Serviced\/Managed by Volunteers from Bainbridge Avenue Community Garden","borocd":207,"ct2010":3000,"zip_code":10458,"website":null,"notes":null},{"borough":"Manhattan","councildist":8,"food_scrap_drop_off_site":"Lydia's Magic Garden","hours_from":"11:30am","hours_to":"9:30am","latitude":40.8000831604,"location":"1665 Park Avenue, Manhattan 10035\nbetween 117th and 118th Streets","longitude":-73.9422073364,"ntaname":"East Harlem North","operation_day":"Wednesday","open_months":"Seasonal, April-October","serviced_by":"GrowNYC","borocd":111,"ct2010":2001,"zip_code":10035,"website":"https:\/\/www.facebook.com\/lydiasmagicgarden\/","notes":null},{"borough":"Manhattan","councildist":10,"food_scrap_drop_off_site":"OPEN FOR SEASON: Morris- Jumel Community Garden","hours_from":"5pm","hours_to":"12pm","latitude":40.8357772827,"location":"455-457 West 162nd Street","longitude":-73.9391403198,"ntaname":"Washington Heights South","operation_day":"Saturday","open_months":"Seasonal, April-October","serviced_by":"Morris- Jumel Community Garden","borocd":112,"ct2010":2000,"zip_code":10032,"website":"https:\/\/morrisjumelcommunitygarden.wordpress.com\/","notes":null},{"borough":"Manhattan","councildist":2,"food_scrap_drop_off_site":"Christopher Street","hours_from":"11:00 AM","hours_to":"08:00 AM","latitude":40.7336349487,"location":"7th Avenue and Christopher St - SW Corner","longitude":-74.002784729,"ntaname":"West Village","operation_day":"Tuesdays","open_months":"Year Round","serviced_by":"NYC Compost Project","borocd":102,"ct2010":73,"zip_code":10014,"website":"www.lesecologycenter.org","notes":null},{"borough":"Brooklyn","councildist":46,"food_scrap_drop_off_site":"Bay View Houses Farm","hours_from":"05:00 PM","hours_to":"09:00 AM","latitude":40.6333351135,"location":"5955 Shore Parkway","longitude":-73.8859710693,"ntaname":"Canarsie","operation_day":"Everyday","open_months":"Seasonal, June-November","serviced_by":"East New York Farms!","borocd":318,"ct2010":1004,"zip_code":11236,"website":"https:\/\/ucceny.org\/enyf\/","notes":null},{"borough":"Staten Island","councildist":49,"food_scrap_drop_off_site":"Olivet Heavenly Harvest","hours_from":"06:00 PM","hours_to":"04:00 PM","latitude":40.6301994324,"location":"97 Myrtle Avenue, Staten Island, NY","longitude":-74.1159667969,"ntaname":"New Brighton-Silver Lake","operation_day":"Thursdays","open_months":"Seasonal, March-November","serviced_by":"Olivet Presbyterian Church","borocd":501,"ct2010":4006,"zip_code":10310,"website":"www.olivetcares.org","notes":null},{"borough":"Queens","councildist":26,"food_scrap_drop_off_site":"Sunnyside Greenmarket","hours_from":"02:00 PM","hours_to":"08:00 AM","latitude":40.7468910217,"location":"Skillman Ave at 43rd St,Queens,NY,11104","longitude":-73.9207992554,"ntaname":"Hunters Point-Sunnyside-West Maspeth","operation_day":"Saturdays","open_months":"Year Round","serviced_by":"NYC Compost Project","borocd":402,"ct2010":171,"zip_code":11104,"website":"http:\/\/www.bigreuse.org\/compost\/drop-off-list\/","notes":null},{"borough":"Brooklyn","councildist":34,"food_scrap_drop_off_site":"Scholes Street Children's Garden","hours_from":null,"hours_to":null,"latitude":40.7084770203,"location":"134 Scholes St, Brooklyn, NY 11206","longitude":-73.9443054199,"ntaname":"East Williamsburg","operation_day":"Thursdays","open_months":"Year Round","serviced_by":"Scholes Street Children's Garden","borocd":301,"ct2010":2000,"zip_code":11206,"website":"www.nyrp.org","notes":null},{"borough":"Manhattan","councildist":9,"food_scrap_drop_off_site":"FACES NY at 115th","hours_from":"2pm","hours_to":"10am","latitude":40.8019371033,"location":"121 West 115th, 10026","longitude":-73.9509887695,"ntaname":"Central Harlem South","operation_day":"Monday","open_months":"Year Round","serviced_by":"FACES NY","borocd":110,"ct2010":2000,"zip_code":10026,"website":"www.facesny.org","notes":null},{"borough":"Manhattan","councildist":2,"food_scrap_drop_off_site":"OPENING JULY 1: Green Oasis Garden","hours_from":"dusk","hours_to":"dawn","latitude":40.7242050171,"location":"368 East 8 Street, NY 10009","longitude":-73.9774169922,"ntaname":"Lower East Side","operation_day":"Everyday","open_months":"Year Round","serviced_by":"Green Oasis Garden","borocd":103,"ct2010":1001,"zip_code":10009,"website":"http:\/\/greenoasisnyc.org\/","notes":null},{"borough":"Queens","councildist":26,"food_scrap_drop_off_site":"CLOSING JULY 8: Junkluggers","hours_from":"06:00 PM","hours_to":"10:00 AM","latitude":40.7655677795,"location":"33-56 11th Street, Queens","longitude":-73.9375228882,"ntaname":"Queensbridge-Ravenswood-Long Island City","operation_day":"Tuesdays","open_months":"Year Round","serviced_by":"NYC Compost Project","borocd":401,"ct2010":1001,"zip_code":11106,"website":null,"notes":null},{"borough":"Manhattan","councildist":8,"food_scrap_drop_off_site":"The Herb Garden","hours_from":"dusk","hours_to":"dawn","latitude":40.7948265076,"location":"180 East 111th Street","longitude":-73.9430999756,"ntaname":"East Harlem South","operation_day":"Everyday","open_months":"Year Round","serviced_by":"The Herb Garden","borocd":111,"ct2010":1003,"zip_code":10029,"website":null,"notes":null},{"borough":"Manhattan","councildist":3,"food_scrap_drop_off_site":"Hudson River Park's 14th Street Park at 10th Ave.","hours_from":"7pm","hours_to":"7am","latitude":40.7428321838,"location":"14th Street Park at southwest corner of 15th St. and 10th Ave","longitude":-74.0076980591,"ntaname":"Hudson Yards-Chelsea-Flatiron-Union Square","operation_day":"Everyday","open_months":"Year Round","serviced_by":"Hudson River Park Trust","borocd":104,"ct2010":83,"zip_code":10011,"website":"https:\/\/www.hudsonriverpark.org\/","notes":null},{"borough":"Brooklyn","councildist":39,"food_scrap_drop_off_site":"East 4th Street Community Garden","hours_from":"06:00 PM","hours_to":"04:00 PM","latitude":40.6482124329,"location":"173 East 4th Street","longitude":-73.9770965576,"ntaname":"Windsor Terrace","operation_day":"Wednesdays","open_months":"Seasonal, April-October","serviced_by":"East 4th Street Community Garden","borocd":307,"ct2010":2004,"zip_code":11218,"website":null,"notes":null},{"borough":"Bronx","councildist":16,"food_scrap_drop_off_site":"St. Augustine Food Pantry","hours_from":"5pm","hours_to":"11am","latitude":40.8290672302,"location":"1168 Franklin Ave","longitude":-73.9042892456,"ntaname":"Morrisania-Melrose","operation_day":"Monday","open_months":"Year Round","serviced_by":"St. Augustine Food Pantry","borocd":203,"ct2010":2000,"zip_code":10456,"website":null,"notes":null},{"borough":"Manhattan","councildist":4,"food_scrap_drop_off_site":"OPEN FOR SEASON: Bryant Park","hours_from":"2:30pm","hours_to":"12:30pm","latitude":40.7541770935,"location":"6th Avenue and 41st Sreet","longitude":-73.9845962524,"ntaname":"Midtown-Midtown South","operation_day":"Friday","open_months":"Seasonal, May-November","serviced_by":"Bryant Park Corporation","borocd":105,"ct2010":84,"zip_code":10018,"website":"http:\/\/bryantpark.org\/programs\/waste-sorting-concierge","notes":"For schedule, holiday, and inclement weather updates, please visit: http:\/\/bryantpark.org\/programs\/waste-sorting-concierge"},{"borough":"Manhattan","councildist":7,"food_scrap_drop_off_site":"97th Street Greenmarket","hours_from":"2pm","hours_to":"8am","latitude":40.7935562134,"location":"97th St between Columbus & Amsterdam, Manhattan","longitude":-73.9670181274,"ntaname":"Upper West Side","operation_day":"Friday","open_months":"Year Round","serviced_by":"GrowNYC","borocd":107,"ct2010":181,"zip_code":10025,"website":"http:\/\/www.grownyc.org\/compost\/locations","notes":null},{"borough":"Manhattan","councildist":2,"food_scrap_drop_off_site":"CLOSED FOR SEASON: Carmen Pabon del Amanecer Community Garden","hours_from":"5pm","hours_to":"10am","latitude":40.7244529724,"location":"115 Avenue C","longitude":-73.9788742065,"ntaname":"Lower East Side","operation_day":"Sunday","open_months":"Seasonal","serviced_by":"Carmen Pabon del Amanecer Community Garden","borocd":103,"ct2010":2001,"zip_code":10009,"website":null,"notes":null},{"borough":"Manhattan","councildist":2,"food_scrap_drop_off_site":"OPENING JULY 7: La Plaza Cultural Community Garden","hours_from":"5pm","hours_to":"10am","latitude":40.7254142761,"location":"674 East 9th Street","longitude":-73.9786224365,"ntaname":"Lower East Side","operation_day":"Sunday","open_months":"Seasonal","serviced_by":"La Plaza Cultural Community Garden","borocd":103,"ct2010":2000,"zip_code":10009,"website":"laplazacultural.com","notes":"Find instructions here for composting at La Plaza: https:\/\/drive.google.com\/file\/d\/0BwYV2m0W1uasckhWd2ZZdTRzSVk\/view?usp=sharing"},{"borough":"Queens","councildist":26,"food_scrap_drop_off_site":"OPEN FOR SEASON: Brooklyn Grange","hours_from":"04:00 PM","hours_to":"10:00 AM","latitude":40.7520027161,"location":"37-19 Northern Blvd Roof","longitude":-73.9253234863,"ntaname":"Hunters Point-Sunnyside-West Maspeth","operation_day":"Saturdays","open_months":"Seasonal","serviced_by":"Brooklyn Grange","borocd":401,"ct2010":1005,"zip_code":11101,"website":"www.brooklyngrangefarm.com","notes":null},{"borough":"Queens","councildist":22,"food_scrap_drop_off_site":"Astoria Library","hours_from":"08:00 PM","hours_to":"12:00 PM","latitude":40.7723770142,"location":"14-01 Astoria Blvd, Astoria, NY 11102","longitude":-73.9287414551,"ntaname":"Old Astoria","operation_day":"Thursdays","open_months":"Year Round","serviced_by":"NYC Compost Project","borocd":401,"ct2010":2001,"zip_code":11102,"website":"http:\/\/www.queenslibrary.org\/branch\/Astoria\n\nhttp:\/\/www.bigreuse.org\/compost\/drop-off-list\/","notes":null},{"borough":"Queens","councildist":29,"food_scrap_drop_off_site":"Forest Hills Greenmarket","hours_from":"02:00 PM","hours_to":"08:00 AM","latitude":40.7218551636,"location":"South side of Queens Blvd at 70th Avenue, Queens","longitude":-73.8464813232,"ntaname":"Forest Hills","operation_day":"Sundays","open_months":"Year Round","serviced_by":"NYC Compost Project","borocd":406,"ct2010":711,"zip_code":11375,"website":"http:\/\/www.bigreuse.org\/compost\/drop-off-list\/","notes":null},{"borough":"Brooklyn","councildist":42,"food_scrap_drop_off_site":"UCC Youth Farm","hours_from":"06:00 PM","hours_to":"10:00 AM","latitude":40.6649093628,"location":"613 New Lots Avenue","longitude":-73.8867263794,"ntaname":"East New York","operation_day":"Fridays","open_months":"Year Round","serviced_by":"East New York Farms!","borocd":305,"ct2010":2004,"zip_code":11207,"website":"https:\/\/ucceny.org\/enyf\/","notes":null},{"borough":"Manhattan","councildist":2,"food_scrap_drop_off_site":"Commuter Composting at 1st Ave and 1st St.","hours_from":"11am","hours_to":"8am","latitude":40.7229347229,"location":"First Avenue between Houston and First Street (West Side)","longitude":-73.9886398315,"ntaname":"Chinatown","operation_day":"Wednesday","open_months":"Year Round","serviced_by":"NYC Compost Project","borocd":103,"ct2010":3001,"zip_code":10002,"website":"www.lesecologycenter.org","notes":null},{"borough":"Brooklyn","councildist":35,"food_scrap_drop_off_site":"Prospect Heights Community Farm","hours_from":"12:00 PM","hours_to":"10:00 AM","latitude":40.6780891418,"location":"252 St. Marks Ave.","longitude":-73.9677429199,"ntaname":"Prospect Heights","operation_day":"Sundays","open_months":"Year Round","serviced_by":"Prospect Heights Community Farm","borocd":308,"ct2010":2002,"zip_code":11238,"website":"https:\/\/www.phcfarm.com\/gardening-info\/composting\/","notes":null},{"borough":"Queens","councildist":22,"food_scrap_drop_off_site":"Ditmars Blvd N\/W Commuter Drop-Off","hours_from":"11:00 AM","hours_to":"08:00 AM","latitude":40.7747612,"location":"22-75 31st St, Astoria, NY 11102 (Closest approximation, there is no address for this stretch of sidewalk)","longitude":-73.9125061035,"ntaname":"Steinway","operation_day":"Tuesdays","open_months":"Year Round","serviced_by":"NYC Compost Project","borocd":401,"ct2010":2003,"zip_code":11105,"website":null,"notes":null},{"borough":"Queens","councildist":22,"food_scrap_drop_off_site":"Hellgate Farm","hours_from":"08:00 PM","hours_to":"08:00 AM","latitude":40.7688941956,"location":"14-33 30th Drive","longitude":-73.9299468994,"ntaname":"Old Astoria","operation_day":"Wednesdays","open_months":"Year Round","serviced_by":"Hellgate Farm","borocd":401,"ct2010":1004,"zip_code":11102,"website":"https:\/\/www.hellgatefarm.com\/","notes":null},{"borough":"Brooklyn","councildist":33,"food_scrap_drop_off_site":"McCarren Park Greenmarket","hours_from":"02:00 PM","hours_to":"08:00 AM","latitude":40.720451355,"location":"Union Ave at Driggs Ave,Brooklyn,NY,11222","longitude":-73.9527053833,"ntaname":"North Side-South Side","operation_day":"Saturdays","open_months":"Year Round","serviced_by":"GrowNYC","borocd":301,"ct2010":515,"zip_code":11211,"website":"http:\/\/www.grownyc.org\/compost\/locations","notes":null},{"borough":"Queens","councildist":25,"food_scrap_drop_off_site":"Jackson Heights Greenmarket","hours_from":"02:00 PM","hours_to":"08:00 AM","latitude":40.7534332275,"location":"34th Ave b\/t 79th & 80th Sts","longitude":-73.8878250122,"ntaname":"Jackson Heights","operation_day":"Sundays","open_months":"Year Round","serviced_by":"NYC Compost Project","borocd":403,"ct2010":285,"zip_code":11372,"website":"http:\/\/www.bignyc.org\/drop-sites","notes":null},{"borough":"Queens","councildist":22,"food_scrap_drop_off_site":"Astoria Library","hours_from":"06:00 PM","hours_to":"10:00 AM","latitude":40.7723770142,"location":"14-01 Astoria Blvd, Astoria, NY 11102","longitude":-73.9287414551,"ntaname":"Old Astoria","operation_day":"Wednesdays","open_months":"Year Round","serviced_by":"NYC Compost Project","borocd":401,"ct2010":2001,"zip_code":11102,"website":"http:\/\/www.queenslibrary.org\/branch\/Astoria\n\nhttp:\/\/www.bigreuse.org\/compost\/drop-off-list\/","notes":null},{"borough":"Brooklyn","councildist":42,"food_scrap_drop_off_site":"OPEN FOR SEASON: Pink Houses Community Farm","hours_from":"12:00 PM","hours_to":"10:00 AM","latitude":40.6682929993,"location":"1257 Loring Avenue","longitude":-73.864440918,"ntaname":"East New York","operation_day":"Saturdays","open_months":"Seasonal Market, June-November","serviced_by":"East New York Farms!","borocd":305,"ct2010":1000,"zip_code":11208,"website":"https:\/\/ucceny.org\/enyf\/","notes":null},{"borough":"Queens","councildist":26,"food_scrap_drop_off_site":"CLOSING JULY 8: Junkluggers","hours_from":"06:00 PM","hours_to":"10:00 AM","latitude":40.7655677795,"location":"33-56 11th Street, Queens","longitude":-73.9375228882,"ntaname":"Queensbridge-Ravenswood-Long Island City","operation_day":"Mondays","open_months":"Year Round","serviced_by":"NYC Compost Project","borocd":401,"ct2010":1001,"zip_code":11106,"website":null,"notes":null},{"borough":"Manhattan","councildist":1,"food_scrap_drop_off_site":"Bowling Green Greenmarket","hours_from":"2pm","hours_to":"8am","latitude":40.7047195435,"location":"Broadway at Battery Place,New York,NY, 10004","longitude":-74.0135269165,"ntaname":"Battery Park City-Lower Manhattan","operation_day":"Tuesday","open_months":"Year Round","serviced_by":"GrowNYC","borocd":101,"ct2010":9,"zip_code":10004,"website":"http:\/\/www.grownyc.org\/compost\/locations","notes":null},{"borough":"Manhattan","councildist":4,"food_scrap_drop_off_site":"OPEN FOR SEASON: Bryant Park","hours_from":"2:30pm","hours_to":"12:30pm","latitude":40.7541770935,"location":"6th Avenue and 41st Sreet","longitude":-73.9845962524,"ntaname":"Midtown-Midtown South","operation_day":"Monday","open_months":"Seasonal, May-November","serviced_by":"Bryant Park Corporation","borocd":105,"ct2010":84,"zip_code":10018,"website":"http:\/\/bryantpark.org\/programs\/waste-sorting-concierge","notes":"For schedule, holiday, and inclement weather updates, please visit: http:\/\/bryantpark.org\/programs\/waste-sorting-concierge"},{"borough":"Brooklyn","councildist":40,"food_scrap_drop_off_site":"Cortelyou Greenmarket","hours_from":"01:00 PM","hours_to":"08:00 AM","latitude":40.6408233643,"location":"Cortelyou Rd at Rugby Rd, Brooklyn, NY, 11226","longitude":-73.9653015137,"ntaname":"Flatbush","operation_day":"Sundays","open_months":"Year Round","serviced_by":"GrowNYC","borocd":314,"ct2010":520,"zip_code":11226,"website":"http:\/\/www.grownyc.org\/compost\/locations","notes":null},{"borough":"Manhattan","councildist":1,"food_scrap_drop_off_site":"Tribeca Greenmarket","hours_from":"1pm","hours_to":"8am","latitude":40.7163009644,"location":"Greenwich Street at Chambers Street,New York,NY","longitude":-74.0109634399,"ntaname":"Battery Park City-Lower Manhattan","operation_day":"Saturday","open_months":"Year Round","serviced_by":"GrowNYC, NYC Dept of Sanitation & Community Partners","borocd":101,"ct2010":21,"zip_code":10007,"website":"http:\/\/www.grownyc.org\/compost\/locations","notes":null},{"borough":"Brooklyn","councildist":36,"food_scrap_drop_off_site":"Imani Garden","hours_from":"Dusk","hours_to":"Dawn","latitude":40.6765136719,"location":"1680 Pacific Street","longitude":-73.9329833984,"ntaname":"Crown Heights North","operation_day":"Everyday","open_months":"Year Round","serviced_by":"Imani Garden","borocd":308,"ct2010":1003,"zip_code":11213,"website":"N\/A","notes":null},{"borough":"Manhattan","councildist":5,"food_scrap_drop_off_site":"Roosevelt Island under the Helix","hours_from":"02:30 PM","hours_to":"09:00 AM","latitude":40.7637863159,"location":"Main Street under the Helix","longitude":-73.9473648071,"ntaname":"Lenox Hill-Roosevelt Island","operation_day":"Saturdays","open_months":"Year Round","serviced_by":"NYC Compost Project","borocd":108,"ct2010":23801,"zip_code":10044,"website":"http:\/\/www.bigreuse.org\/compost","notes":null},{"borough":"Manhattan","councildist":3,"food_scrap_drop_off_site":"Hudson River Park's Pier 40 at W. Houston St.","hours_from":"7pm","hours_to":"7am","latitude":40.7291107178,"location":"Pier 40 at Houston St. near dog park","longitude":-74.0106735229,"ntaname":"West Village","operation_day":"Everyday","open_months":"Year Round","serviced_by":"Hudson River Park Trust","borocd":102,"ct2010":37,"zip_code":10014,"website":"https:\/\/www.hudsonriverpark.org\/","notes":null},{"borough":"Bronx","councildist":8,"food_scrap_drop_off_site":"OPEN FOR SEASON: Target Bronx Community Garden","hours_from":"2pm","hours_to":"10:30am","latitude":40.8328094482,"location":"1025 Anderson Avenue","longitude":-73.9270248413,"ntaname":"Highbridge","operation_day":"Friday","open_months":"Seasonal","serviced_by":"Target Bronx Community Garden\/ NYRP","borocd":204,"ct2010":2000,"zip_code":10452,"website":"www.nyrp.org","notes":null},{"borough":"Manhattan","councildist":10,"food_scrap_drop_off_site":"Inwood Greenmarket","hours_from":"1pm","hours_to":"8am","latitude":40.8689994812,"location":"Isham St at Cooper,New York,NY, 10034","longitude":-73.9203186035,"ntaname":"park-cemetery-etc-Manhattan","operation_day":"Saturday","open_months":"Year Round","serviced_by":"New York Restoration Project & GrowNYC","borocd":112,"ct2010":303,"zip_code":10034,"website":"http:\/\/www.grownyc.org\/compost\/locations","notes":null},{"borough":"Manhattan","councildist":10,"food_scrap_drop_off_site":"181st Street","hours_from":"11:15am","hours_to":"6:45am","latitude":40.8521270752,"location":"Fort Washington Ave btw. 183rd & 185th - W (Bennett Park Entrance)","longitude":-73.9378204346,"ntaname":"Washington Heights North","operation_day":"Wednesday","open_months":"Year Round","serviced_by":"GrowNYC","borocd":112,"ct2010":273,"zip_code":10033,"website":"https:\/\/www.grownyc.org\/compost-go","notes":null},{"borough":"Bronx","councildist":11,"food_scrap_drop_off_site":"Mosholu Preservation","hours_from":"04:00 PM","hours_to":"12:00 PM","latitude":40.8790016174,"location":"3400 Reservoir Oval East","longitude":-73.8756942749,"ntaname":"Norwood","operation_day":"Mondays","open_months":"Year Round","serviced_by":"Mosholu Preservation","borocd":207,"ct2010":1001,"zip_code":10467,"website":"www.mpcbronx.org","notes":null},{"borough":"Manhattan","councildist":9,"food_scrap_drop_off_site":"145th Street","hours_from":"10am","hours_to":"6:30am","latitude":40.8236465454,"location":"145th & Edgecombe Ave - NE Corner (Jackie Robinson Park Entrance)","longitude":-73.9438476562,"ntaname":"Hamilton Heights","operation_day":"Wednesday","open_months":"Year Round","serviced_by":"GrowNYC","borocd":109,"ct2010":227,"zip_code":10030,"website":"https:\/\/www.grownyc.org\/compost-go","notes":null},{"borough":"Manhattan","councildist":1,"food_scrap_drop_off_site":"West Village (Closed Thursday, 7\/4 - Independence Day)","hours_from":"11am","hours_to":"8am","latitude":40.7329292297,"location":"6th Avenue and Waverly Place - SE Corner","longitude":-74.0000686646,"ntaname":"West Village","operation_day":"Thursday","open_months":"Year Round","serviced_by":"NYC Compost Project","borocd":102,"ct2010":63,"zip_code":10011,"website":"www.lesecologycenter.org","notes":null},{"borough":"Brooklyn","councildist":37,"food_scrap_drop_off_site":"Bushwick Grows! Community Garden","hours_from":"01:00 PM","hours_to":"10:00 AM","latitude":40.6976051331,"location":"1474 Gates Ave.","longitude":-73.9137039185,"ntaname":"Bushwick North","operation_day":"Saturdays","open_months":"Year Round","serviced_by":"Bushwick Grows! Community Garden","borocd":304,"ct2010":3002,"zip_code":11237,"website":"riseboro.org","notes":null},{"borough":"Manhattan","councildist":10,"food_scrap_drop_off_site":"Dyckman Street","hours_from":"11:30 AM","hours_to":"06:30 AM","latitude":40.8650550842,"location":"Broadway, Riverside Drive, Dyckman Street (Anne Loftus Playground\/Fort Tyron Park Entrance)","longitude":-73.9284133911,"ntaname":"Washington Heights North","operation_day":"Wednesdays","open_months":"Year Round","serviced_by":"GrowNYC","borocd":112,"ct2010":3001,"zip_code":10040,"website":"https:\/\/www.grownyc.org\/compost-go","notes":null},{"borough":"Bronx","councildist":16,"food_scrap_drop_off_site":"St. Augustine Food Pantry","hours_from":"5pm","hours_to":"12:30pm","latitude":40.8290672302,"location":"1168 Franklin Ave","longitude":-73.9042892456,"ntaname":"Morrisania-Melrose","operation_day":"Thursday","open_months":"Year Round","serviced_by":"St. Augustine Food Pantry","borocd":203,"ct2010":2000,"zip_code":10456,"website":null,"notes":null},{"borough":"Manhattan","councildist":1,"food_scrap_drop_off_site":"SoHo Broadway and Spring Street","hours_from":"dusk","hours_to":"dawn","latitude":40.7230224609,"location":"Broadway at Spring Street","longitude":-73.9988098145,"ntaname":"SoHo-TriBeCa-Civic Center-Little Italy","operation_day":"Everyday. Register to get access: https:\/\/mdicus.wufoo.com\/forms\/p1b9sjtg0d3oukc\/","open_months":"Year Round","serviced_by":"SoHo Broadway Initiative","borocd":102,"ct2010":43,"zip_code":10012,"website":"www.sohobroadway.org","notes":null},{"borough":"Manhattan","councildist":9,"food_scrap_drop_off_site":"Harlem Grown","hours_from":"5pm","hours_to":"9am","latitude":40.8138046265,"location":"118 W 134th St","longitude":-73.942817688,"ntaname":"Central Harlem North-Polo Grounds","operation_day":"Monday","open_months":"Year Round","serviced_by":"Harlem Grown","borocd":110,"ct2010":1000,"zip_code":10030,"website":"http:\/\/www.harlemgrown.org\/","notes":null},{"borough":"Queens","councildist":23,"food_scrap_drop_off_site":"Queens County Farm Museum","hours_from":"05:00 PM","hours_to":"10:00 AM","latitude":40.7476081848,"location":"73-50 Little Neck Parkway","longitude":-73.7240982056,"ntaname":"Bellerose","operation_day":"Everyday","open_months":"Year Round","serviced_by":"Queens County Farm Museum","borocd":413,"ct2010":1000,"zip_code":11004,"website":"http:\/\/queensfarm.org\/","notes":null},{"borough":"Manhattan","councildist":2,"food_scrap_drop_off_site":"El Sol Brilliante- Children's Garden","hours_from":"dusk","hours_to":"dawn","latitude":40.7281074524,"location":"544 East 12th St.","longitude":-73.9794464111,"ntaname":"East Village","operation_day":"Everyday","open_months":"Year Round","serviced_by":"El Sol Brilliante- Children's Garden","borocd":103,"ct2010":2000,"zip_code":10009,"website":null,"notes":null},{"borough":"Bronx","councildist":15,"food_scrap_drop_off_site":"OPENING JUNE 14: Fordham Plaza Greenmarket","hours_from":"01:00 PM","hours_to":"11:30 AM","latitude":40.8617019653,"location":"E Fordham Rd btw Webster Ave & Third Ave - S","longitude":-73.8913803101,"ntaname":"Fordham South","operation_day":"Fridays","open_months":"Year Round","serviced_by":"GrowNYC","borocd":207,"ct2010":397,"zip_code":10458,"website":"https:\/\/www.google.com\/url?q=https:\/\/www.grownyc.org\/greenmarket\/bronx\/fordham&sa=D&ust=1529701744031000&usg=AFQjCNEeS7ccxGr2iqQtxYX1e5-bazhCXA","notes":null},{"borough":"Manhattan","councildist":1,"food_scrap_drop_off_site":"Commuter Composting at East Broadway & Rutgers Street","hours_from":"11am","hours_to":"8am","latitude":40.7140541077,"location":"East Broadway & Rutgers Street (SE corner), Manhattan","longitude":-73.9901885986,"ntaname":"Lower East Side","operation_day":"Wednesday","open_months":"Year Round","serviced_by":"NYC Compost Project","borocd":103,"ct2010":6,"zip_code":10002,"website":"www.lesecologycenter.org","notes":null},{"borough":"Bronx","councildist":17,"food_scrap_drop_off_site":"The Point CDC","hours_from":"6pm","hours_to":"10am","latitude":40.8182220459,"location":"940 Garrison Avenue","longitude":-73.8904647827,"ntaname":"Hunts Point","operation_day":"Thursday","open_months":"Year Round","serviced_by":"The Point CDC","borocd":202,"ct2010":2005,"zip_code":10474,"website":"thepoint.org","notes":null},{"borough":"Brooklyn","councildist":39,"food_scrap_drop_off_site":"Grand Army Plaza Greenmarket","hours_from":"03:30 PM","hours_to":"08:00 AM","latitude":40.6725616455,"location":"Prospect Park West & Plaza Street West, Brooklyn, 11238","longitude":-73.969871521,"ntaname":"Park Slope-Gowanus","operation_day":"Saturdays","open_months":"Year Round","serviced_by":"GrowNYC","borocd":306,"ct2010":165,"zip_code":11238,"website":"http:\/\/www.grownyc.org\/compost\/locations","notes":null},{"borough":"Queens","councildist":29,"food_scrap_drop_off_site":"Commuter Composting at Kew Gardens E\/F","hours_from":"09:30 AM","hours_to":"07:30 AM","latitude":40.7130393982,"location":"Kew Gardens Road and 81st. Avenue, Kew Gardens 11415","longitude":-73.8298110962,"ntaname":"Kew Gardens","operation_day":"Tuesdays","open_months":"Year Round","serviced_by":"NYC Compost Project","borocd":409,"ct2010":216,"zip_code":11415,"website":null,"notes":null},{"borough":"Manhattan","councildist":7,"food_scrap_drop_off_site":"Columbia University Greenmarket (Closed Thursday, 7\/4 - Independence Day)","hours_from":"3pm","hours_to":"8am","latitude":40.8067054749,"location":"Broadway at West 114 St,New York,NY,10025","longitude":-73.9648513794,"ntaname":"Morningside Heights","operation_day":"Thursday","open_months":"Year Round","serviced_by":"GrowNYC","borocd":109,"ct2010":199,"zip_code":10025,"website":"http:\/\/www.grownyc.org\/compost\/locations","notes":null},{"borough":"Manhattan","councildist":7,"food_scrap_drop_off_site":"The Brotherhood\/Sister Sol","hours_from":"7pm","hours_to":"11am","latitude":40.8243026733,"location":"512 West 143rd Street","longitude":-73.9500045776,"ntaname":"Hamilton Heights","operation_day":"Friday","open_months":"Year Round","serviced_by":"The Brotherhood\/Sister Sol","borocd":109,"ct2010":2001,"zip_code":10031,"website":"https:\/\/brotherhood-sistersol.org\/","notes":null},{"borough":"Queens","councildist":26,"food_scrap_drop_off_site":"Queens Library at Broadway","hours_from":"07:00 PM","hours_to":"01:00 PM","latitude":40.7584762573,"location":"40-20 Broadway, Long Island City, NY, 11103","longitude":-73.9186248779,"ntaname":"Astoria","operation_day":"Mondays","open_months":"Year Round","serviced_by":"NYC Compost Project","borocd":401,"ct2010":1000,"zip_code":11103,"website":"http:\/\/www.bigreuse.org\/compost\/drop-off-list\/","notes":null},{"borough":"Manhattan","councildist":10,"food_scrap_drop_off_site":"OPENING JUNE 27: 175th Street Greenmarket (Closed Thursday, 7\/4 - Independence Day)","hours_from":"2pm","hours_to":"8am","latitude":40.8459472656,"location":"175th Street between Wadsworth Avenue and Broadway, New York, NY","longitude":-73.9378128052,"ntaname":"Washington Heights South","operation_day":"Thursday","open_months":"Seasonal Market, June-November","serviced_by":"GrowNYC","borocd":112,"ct2010":263,"zip_code":10033,"website":"http:\/\/www.grownyc.org\/compost\/locations","notes":null},{"borough":"Manhattan","councildist":2,"food_scrap_drop_off_site":"LES Ecology Center Garden","hours_from":"5:30pm","hours_to":"8am","latitude":40.724647522,"location":"213 E. 7th St","longitude":-73.979637146,"ntaname":"Lower East Side","operation_day":"Sunday","open_months":"Year Round","serviced_by":"NYC Compost Project","borocd":103,"ct2010":2001,"zip_code":10009,"website":"https:\/\/www.lesecologycenter.org\/programs\/compost\/compost-drop-off-locations\/","notes":null},{"borough":"Brooklyn","councildist":75,"food_scrap_drop_off_site":"Carroll Gardens Greenmarket","hours_from":"01:00 PM","hours_to":"08:00 AM","latitude":40.6805419922,"location":"Carroll St. btwn Smith & Court Sts, Brooklyn, NY 11231","longitude":-73.9946517944,"ntaname":"Carroll Gardens-Columbia Street-Red Hook","operation_day":"Sundays","open_months":"Year Round","serviced_by":"GrowNYC","borocd":39,"ct2010":75,"zip_code":11231,"website":"http:\/\/www.grownyc.org\/compost\/locations","notes":null},{"borough":"Manhattan","councildist":10,"food_scrap_drop_off_site":"Swindler Cove","hours_from":"4pm","hours_to":"8am","latitude":40.8577003479,"location":"3703 10th Avenue","longitude":-73.9222640991,"ntaname":"Marble Hill-Inwood","operation_day":"Everyday","open_months":"Year Round","serviced_by":"Swindler Cove","borocd":112,"ct2010":2021,"zip_code":10034,"website":"nyrp.org","notes":null},{"borough":"Queens","councildist":29,"food_scrap_drop_off_site":"OPEN FOR SEASON: The Compost Collective","hours_from":"12:00 PM","hours_to":"11:00 AM","latitude":40.7169837952,"location":"73-24 Yellowstone Blvd.","longitude":-73.8576507568,"ntaname":"Forest Hills","operation_day":"Saturdays","open_months":"Seasonal","serviced_by":"The Compost Collective","borocd":406,"ct2010":2004,"zip_code":11375,"website":"thecompostcollective.com","notes":null},{"borough":"Manhattan","councildist":6,"food_scrap_drop_off_site":"Tucker Square Greenmarket (Closed Thursday, 7\/4 - Independence Day)","hours_from":"3:30pm","hours_to":"8am","latitude":40.7737197876,"location":"Columbus Ave & W 66th St, New York, NY 10023","longitude":-73.9819030762,"ntaname":"Lincoln Square","operation_day":"Thursday","open_months":"Year Round","serviced_by":"GrowNYC","borocd":107,"ct2010":149,"zip_code":10023,"website":"http:\/\/www.grownyc.org\/compost\/locations","notes":null},{"borough":"Bronx","councildist":17,"food_scrap_drop_off_site":"Project H.O.P.E. Fresh Food Box","hours_from":"6:30pm","hours_to":"3pm","latitude":40.8180885315,"location":"854 Hunts Point Ave","longitude":-73.888420105,"ntaname":"Hunts Point","operation_day":"Wednesday","open_months":"Year Round","serviced_by":"GrowNYC","borocd":202,"ct2010":2001,"zip_code":10474,"website":"https:\/\/www.grownyc.org\/compost\/locations","notes":null},{"borough":"Manhattan","councildist":9,"food_scrap_drop_off_site":"Harlem Grown","hours_from":"5pm","hours_to":"9am","latitude":40.8138046265,"location":"118 W 134th St","longitude":-73.942817688,"ntaname":"Central Harlem North-Polo Grounds","operation_day":"Friday","open_months":"Year Round","serviced_by":"Harlem Grown","borocd":110,"ct2010":1000,"zip_code":10030,"website":"http:\/\/www.harlemgrown.org\/","notes":null},{"borough":"Queens","councildist":20,"food_scrap_drop_off_site":"Queens Botanical Garden Public Food Scrap Drop-Off","hours_from":"4:30 PM(Nov-Mar),06:00PM(Apr-Oct)","hours_to":"08:00 AM","latitude":40.7517318726,"location":"Parking Garden at QBG\n42-80 Crommelin Avenue, Flushing, NY 11355","longitude":-73.8300018311,"ntaname":"Flushing","operation_day":"Thursdays","open_months":"Year Round","serviced_by":"NYC Compost Project","borocd":407,"ct2010":1004,"zip_code":11355,"website":"https:\/\/queensbotanical.org","notes":null},{"borough":"Brooklyn","councildist":43,"food_scrap_drop_off_site":"4th Avenue Presbyterian Church","hours_from":"05:00 PM","hours_to":"10:00 AM","latitude":40.635471344,"location":"6753 4th Avenue","longitude":-74.0227966309,"ntaname":"Bay Ridge","operation_day":"Tuesdays","open_months":"Year Round","serviced_by":"4th Avenue Presbyterian Church","borocd":310,"ct2010":1004,"zip_code":11220,"website":"http:\/\/www.fourthavenuepresbyterian.org\/","notes":null},{"borough":"Queens","councildist":22,"food_scrap_drop_off_site":"Commuter Composting at Broadway N\/W","hours_from":"11:00 AM","hours_to":"08:00 AM","latitude":40.7615661621,"location":"32-15 31st St, Astoria, NY 11106 ?","longitude":-73.9255065918,"ntaname":"Astoria","operation_day":"Tuesdays","open_months":"Year Round","serviced_by":"NYC Compost Project","borocd":401,"ct2010":3001,"zip_code":11106,"website":"http:\/\/www.bigreuse.org\/compost\/drop-off-list\/","notes":null},{"borough":"Manhattan","councildist":1,"food_scrap_drop_off_site":"OPEN FOR SEASON: M'Finda Kalunga Garden","hours_from":"7:30pm","hours_to":"5:50pm","latitude":40.7210273743,"location":"Rivington and Forsyth","longitude":-73.9915008545,"ntaname":"Chinatown","operation_day":"Thursday","open_months":"Seasonal, April-October","serviced_by":"M'Finda Kalunga Garden","borocd":103,"ct2010":18,"zip_code":10002,"website":"www.mkgarden.org","notes":null},{"borough":"Manhattan","councildist":9,"food_scrap_drop_off_site":"FACES NY at 115th","hours_from":"2pm","hours_to":"10am","latitude":40.8019371033,"location":"121 West 115th, 10026","longitude":-73.9509887695,"ntaname":"Central Harlem South","operation_day":"Wednesday","open_months":"Year Round","serviced_by":"FACES NY","borocd":110,"ct2010":2000,"zip_code":10026,"website":"www.facesny.org","notes":null},{"borough":"Manhattan","councildist":2,"food_scrap_drop_off_site":"Commuter Composting at 1st Ave and 1st St.","hours_from":"11am","hours_to":"8am","latitude":40.7229347229,"location":"First Avenue between Houston and First Street (West Side)","longitude":-73.9886398315,"ntaname":"Chinatown","operation_day":"Friday","open_months":"Year Round","serviced_by":"NYC Compost Project","borocd":103,"ct2010":3001,"zip_code":10002,"website":"www.lesecologycenter.org","notes":null},{"borough":"Manhattan","councildist":2,"food_scrap_drop_off_site":"Creative Little Garden","hours_from":"dusk","hours_to":"dawn","latitude":40.724647522,"location":"530 East 6th Street","longitude":-73.9825897217,"ntaname":"East Village","operation_day":"Everyday","open_months":"Year Round","serviced_by":"Creative Little Garden","borocd":103,"ct2010":6000,"zip_code":10009,"website":"www.creativelittlegarden.org","notes":null},{"borough":"Bronx","councildist":17,"food_scrap_drop_off_site":"Mary Mitchell Center","hours_from":"06:00 PM","hours_to":"10:00 AM","latitude":40.8449401855,"location":"2007 Mapes Ave, Bronx 10460 at E 178th St","longitude":-73.8874130249,"ntaname":"East Tremont","operation_day":"Wednesday","open_months":"Year Round- following the DOE calendar. Please look at https:\/\/www.schools.nyc.gov\/calendar for closures.","serviced_by":"Mary Mitchell Center","borocd":206,"ct2010":2001,"zip_code":10460,"website":"http:\/\/themarymitchellfyc.org\/","notes":null},{"borough":"Brooklyn","councildist":39,"food_scrap_drop_off_site":"Big Reuse Brooklyn","hours_from":"06:00 PM","hours_to":"10:00 AM","latitude":40.6717224121,"location":"One 12th St, Brooklyn, NY, 11215","longitude":-73.996711731,"ntaname":"Park Slope-Gowanus","operation_day":"Thursdays","open_months":"Year Round","serviced_by":"NYC Compost Project & Community Partners","borocd":306,"ct2010":119,"zip_code":11215,"website":"http:\/\/www.bigreuse.org\/compost\/drop-off-list\/","notes":null},{"borough":"Brooklyn","councildist":41,"food_scrap_drop_off_site":"OPEN FOR SEASON: Phoenix Community Garden","hours_from":"-07:00PM","hours_to":"04:00PM","latitude":40.6785163879,"location":"20 Somers Street","longitude":-73.9116134644,"ntaname":"Ocean Hill","operation_day":"Thursdays","open_months":"Seasonal, April-November","serviced_by":"Phoenix Community Garden","borocd":316,"ct2010":5002,"zip_code":11233,"website":null,"notes":null},{"borough":"Manhattan","councildist":5,"food_scrap_drop_off_site":"96th Street","hours_from":"10:30am","hours_to":"7:15am","latitude":40.7858657837,"location":"96th Street & Lexington Ave - SE Corner (Samuel Seabury Playground)","longitude":-73.9509277344,"ntaname":"Upper East Side-Carnegie Hill","operation_day":"Wednesday","open_months":"Year Round","serviced_by":"GrowNYC","borocd":108,"ct2010":15801,"zip_code":10128,"website":"https:\/\/www.grownyc.org\/compost-go","notes":null},{"borough":"Queens","councildist":20,"food_scrap_drop_off_site":"OPEN FOR SEASON: Queens Botanical Garden DTE Farmers Market","hours_from":"-4:00 PM","hours_to":"8:30 AM","latitude":40.7514228821,"location":"82 Dahlia Avenue","longitude":-73.8273391724,"ntaname":"Flushing","operation_day":"Fridays","open_months":"Seasonal, June to November","serviced_by":"Down to Earth Markets","borocd":407,"ct2010":79702,"zip_code":11355,"website":"downtoearthmarkets.com","notes":null},{"borough":"Manhattan","councildist":2,"food_scrap_drop_off_site":"Union Square Greenmarket","hours_from":"5pm","hours_to":"8am","latitude":40.7368202209,"location":"E 17th St & Union Square E, New York, NY","longitude":-73.9900436401,"ntaname":"Hudson Yards-Chelsea-Flatiron-Union Square","operation_day":"Wednesday","open_months":"Year Round","serviced_by":"NYC Compost Project","borocd":105,"ct2010":50,"zip_code":10003,"website":"http:\/\/www.grownyc.org\/compost\/locations","notes":null},{"borough":"Manhattan","councildist":7,"food_scrap_drop_off_site":"137th Street - City College","hours_from":"11am","hours_to":"7:15am","latitude":40.8213806152,"location":"137th St & Broadway - SW (Montefiore Square)","longitude":-73.9541320801,"ntaname":"Manhattanville","operation_day":"Wednesday","open_months":"Year Round","serviced_by":"GrowNYC","borocd":109,"ct2010":22301,"zip_code":10031,"website":"https:\/\/www.grownyc.org\/compost-go","notes":null},{"borough":"Brooklyn","councildist":34,"food_scrap_drop_off_site":"Scholes Street Children's Garden","hours_from":null,"hours_to":null,"latitude":40.7084770203,"location":"134 Scholes St, Brooklyn, NY 11206","longitude":-73.9443054199,"ntaname":"East Williamsburg","operation_day":"Tuesdays","open_months":"Year Round","serviced_by":"Scholes Street Children's Garden","borocd":301,"ct2010":2000,"zip_code":11206,"website":"www.nyrp.org","notes":null},{"borough":"Bronx","councildist":16,"food_scrap_drop_off_site":"OPEN FOR SEASON: Bronx Borough Hall Greenmarket","hours_from":"02:00 PM","hours_to":"08:00 AM","latitude":40.8273696899,"location":"Grand Concourse and 161 St, Bronx, NY, 10451","longitude":-73.9228057861,"ntaname":"West Concourse","operation_day":"Tuesdays","open_months":"Seasonal Market, June-November","serviced_by":"GrowNYC","borocd":204,"ct2010":18301,"zip_code":10451,"website":"http:\/\/www.grownyc.org\/compost\/locations","notes":null},{"borough":"Staten Island","councildist":49,"food_scrap_drop_off_site":"Olivet Heavenly Harvest","hours_from":"01:00 PM","hours_to":"10:00 AM","latitude":40.6301994324,"location":"97 Myrtle Avenue, Staten Island, NY","longitude":-74.1159667969,"ntaname":"New Brighton-Silver Lake","operation_day":"Tuesdays","open_months":"Seasonal, March-November","serviced_by":"Olivet Presbyterian Church","borocd":501,"ct2010":4006,"zip_code":10310,"website":"www.olivetcares.org","notes":null},{"borough":"Queens","councildist":22,"food_scrap_drop_off_site":"Hellgate Farm","hours_from":"08:00 PM","hours_to":"08:00 AM","latitude":40.7688941956,"location":"14-33 30th Drive","longitude":-73.9299468994,"ntaname":"Old Astoria","operation_day":"Saturdays","open_months":"Year Round","serviced_by":"Hellgate Farm","borocd":401,"ct2010":1004,"zip_code":11102,"website":"https:\/\/www.hellgatefarm.com\/","notes":null},{"borough":"Manhattan","councildist":6,"food_scrap_drop_off_site":"B'nai Jeshurun Community House","hours_from":"9pm","hours_to":"7am","latitude":40.7903747559,"location":"270 West 89th Street","longitude":-73.9759979248,"ntaname":"Upper West Side","operation_day":"Friday","open_months":"Year Round","serviced_by":"B'nai Jeshrun","borocd":107,"ct2010":4001,"zip_code":10024,"website":"www.bj.org","notes":null},{"borough":"Manhattan","councildist":1,"food_scrap_drop_off_site":"OPEN FOR SEASON: Earth Matter, Compost Learning Center","hours_from":"04:00 PM","hours_to":"12:00 PM","latitude":40.6869544983,"location":"758 Enright Rd, New York, NY 10004","longitude":-74.0204315186,"ntaname":"park-cemetery-etc-Manhattan","operation_day":"Saturdays","open_months":"Seasonal, May-October","serviced_by":"NYC Compost Project","borocd":101,"ct2010":5,"zip_code":10004,"website":"https:\/\/earthmatter.org\/nyc-compost-project\/","notes":null},{"borough":"Manhattan","councildist":2,"food_scrap_drop_off_site":"OPENING JULY 7: La Plaza Cultural Community Garden","hours_from":"5pm","hours_to":"10am","latitude":40.7254142761,"location":"674 East 9th Street","longitude":-73.9786224365,"ntaname":"Lower East Side","operation_day":"Saturday","open_months":"Seasonal","serviced_by":"La Plaza Cultural Community Garden","borocd":103,"ct2010":2000,"zip_code":10009,"website":"laplazacultural.com","notes":"Find instructions here for composting at La Plaza: https:\/\/drive.google.com\/file\/d\/0BwYV2m0W1uasckhWd2ZZdTRzSVk\/view?usp=sharing"},{"borough":"Manhattan","councildist":2,"food_scrap_drop_off_site":"14th Street Y","hours_from":"9pm","hours_to":"7am","latitude":40.731212616,"location":"344 E 14th Street","longitude":-73.9833602905,"ntaname":"East Village","operation_day":"Sunday","open_months":"Year Round","serviced_by":"14th Street Y","borocd":103,"ct2010":6000,"zip_code":10003,"website":"https:\/\/www.14streety.org\/about-us\/sustainability\/","notes":null},{"borough":"Brooklyn","councildist":35,"food_scrap_drop_off_site":"Fort Greene Greenmarket","hours_from":"03:00 PM","hours_to":"08:00 AM","latitude":40.6896209717,"location":"Washington Park between Willoughby Avenue & Dekalb Avenue, Brooklyn, NY 11201","longitude":-73.9731216431,"ntaname":"Fort Greene","operation_day":"Saturdays","open_months":"Year Round","serviced_by":"GrowNYC","borocd":302,"ct2010":31,"zip_code":11217,"website":"http:\/\/www.grownyc.org\/compost\/locations","notes":null},{"borough":"Manhattan","councildist":2,"food_scrap_drop_off_site":"CLOSED FOR SEASON: Carmen Pabon del Amanecer Community Garden","hours_from":"5pm","hours_to":"10am","latitude":40.7244529724,"location":"115 Avenue C","longitude":-73.9788742065,"ntaname":"Lower East Side","operation_day":"Saturday","open_months":"Seasonal","serviced_by":"Carmen Pabon del Amanecer Community Garden","borocd":103,"ct2010":2001,"zip_code":10009,"website":null,"notes":null},{"borough":"Bronx","councildist":11,"food_scrap_drop_off_site":"Meg's Community Garden @ Dewitt Clinton High School Campus","hours_from":"Dusk","hours_to":"04:00 PM","latitude":40.8814506531,"location":"100 West Mosholu Parkway","longitude":-73.8866424561,"ntaname":"Van Cortlandt Village","operation_day":"Tuesdays","open_months":"Seasonal, May-November","serviced_by":"James Baldwin Outdoor Learning Center","borocd":207,"ct2010":409,"zip_code":10468,"website":null,"notes":null},{"borough":"Manhattan","councildist":3,"food_scrap_drop_off_site":"Hudson Square","hours_from":"11:00 AM","hours_to":"08:00 AM","latitude":40.7256202698,"location":"6th Avenue & Spring Street -NE Corner","longitude":-74.0044784546,"ntaname":"SoHo-TriBeCa-Civic Center-Little Italy","operation_day":"Tuesdays","open_months":"Year Round","serviced_by":"NYC Compost Project","borocd":102,"ct2010":37,"zip_code":10013,"website":"www.lesecologycenter.org","notes":null},{"borough":"Queens","councildist":22,"food_scrap_drop_off_site":"Astoria Library","hours_from":"06:00 PM","hours_to":"10:00 AM","latitude":40.7723770142,"location":"14-01 Astoria Blvd, Astoria, NY 11102","longitude":-73.9287414551,"ntaname":"Old Astoria","operation_day":"Fridays","open_months":"Year Round","serviced_by":"NYC Compost Project","borocd":401,"ct2010":2001,"zip_code":11102,"website":"http:\/\/www.queenslibrary.org\/branch\/Astoria\n\nhttp:\/\/www.bigreuse.org\/compost\/drop-off-list\/","notes":null},{"borough":"Manhattan","councildist":1,"food_scrap_drop_off_site":"Hudson River Park's Pier 25 at N. Moore St.","hours_from":"7pm","hours_to":"7am","latitude":40.7203178406,"location":"Pier 25 at N. Moore St. near kid's playground","longitude":-74.0121688843,"ntaname":"SoHo-TriBeCa-Civic Center-Little Italy","operation_day":"Everyday","open_months":"Year Round","serviced_by":"Hudson River Park Trust","borocd":101,"ct2010":39,"zip_code":10013,"website":"https:\/\/www.hudsonriverpark.org\/","notes":null},{"borough":"Queens","councildist":22,"food_scrap_drop_off_site":"Astoria Library","hours_from":"06:00 PM","hours_to":"01:00 PM","latitude":40.7723770142,"location":"14-01 Astoria Blvd, Astoria, NY 11102","longitude":-73.9287414551,"ntaname":"Old Astoria","operation_day":"Tuesdays","open_months":"Year Round","serviced_by":"NYC Compost Project","borocd":401,"ct2010":2001,"zip_code":11102,"website":"http:\/\/www.queenslibrary.org\/branch\/Astoria\n\nhttp:\/\/www.bigreuse.org\/compost\/drop-off-list\/","notes":null},{"borough":"Bronx","councildist":17,"food_scrap_drop_off_site":"We Stay\/Nos Quedamos","hours_from":"4pm","hours_to":"12pm","latitude":40.8211402893,"location":"754 Melrose Avenue","longitude":-73.914932251,"ntaname":"Melrose South-Mott Haven North","operation_day":"Tuesday","open_months":"Year Round","serviced_by":"GrowNYC","borocd":201,"ct2010":1003,"zip_code":10451,"website":"https:\/\/www.grownyc.org\/compost\/locations","notes":null},{"borough":"Manhattan","councildist":2,"food_scrap_drop_off_site":"14th Street Y","hours_from":"9pm","hours_to":"7am","latitude":40.731212616,"location":"344 E 14th Street","longitude":-73.9833602905,"ntaname":"East Village","operation_day":"Thursday","open_months":"Year Round","serviced_by":"14th Street Y","borocd":103,"ct2010":6000,"zip_code":10003,"website":"https:\/\/www.14streety.org\/about-us\/sustainability\/","notes":null},{"borough":"Brooklyn","councildist":41,"food_scrap_drop_off_site":"OPEN FOR SEASON: Phoenix Community Garden","hours_from":"-07:00PM","hours_to":"04:00PM","latitude":40.6785163879,"location":"20 Somers Street","longitude":-73.9116134644,"ntaname":"Ocean Hill","operation_day":"Fridays","open_months":"Seasonal, April-November","serviced_by":"Phoenix Community Garden","borocd":316,"ct2010":5002,"zip_code":11233,"website":null,"notes":null},{"borough":"Manhattan","councildist":7,"food_scrap_drop_off_site":"Dorothy K. McGowan Memorial Garden","hours_from":"4pm","hours_to":"1pm","latitude":40.834022522,"location":"513 West 158th Street","longitude":-73.9422607422,"ntaname":"Washington Heights South","operation_day":"Sunday","open_months":"Year Round","serviced_by":"Dorothy K. McGowan Memorial Garden","borocd":112,"ct2010":7000,"zip_code":10032,"website":null,"notes":null},{"borough":"Queens","councildist":26,"food_scrap_drop_off_site":"Socrates Sculpture Park","hours_from":"Dusk","hours_to":"09:00 AM","latitude":40.7677726746,"location":"Broadway & Vernon Blvd, Queens, NY 11106","longitude":-73.9362258911,"ntaname":"Queensbridge-Ravenswood-Long Island City","operation_day":"Every Day","open_months":"Year Round","serviced_by":"NYC Compost Project","borocd":401,"ct2010":37,"zip_code":11106,"website":"http:\/\/socratessculpturepark.org\/programevent\/socratesmarket\/\n\nhttp:\/\/www.bigreuse.org\/compost\/drop-off-list\/","notes":null},{"borough":"Queens","councildist":31,"food_scrap_drop_off_site":"Edgemere Farm","hours_from":"Dusk","hours_to":"Dawn","latitude":40.5953674316,"location":"385 Beach 45th St","longitude":-73.7767333984,"ntaname":"Hammels-Arverne-Edgemere","operation_day":"Everyday","open_months":"Year Round","serviced_by":"Edgemere Farm","borocd":414,"ct2010":2003,"zip_code":11691,"website":"http:\/\/www.edgemerefarm.org\/","notes":null},{"borough":"Bronx","councildist":8,"food_scrap_drop_off_site":"Brook Ave","hours_from":"10:45am","hours_to":"6:45am","latitude":40.807559967,"location":"138th, Brook Ave - NW Corner","longitude":-73.9192276001,"ntaname":"Mott Haven-Port Morris","operation_day":"Friday","open_months":"Year Round","serviced_by":"GrowNYC","borocd":201,"ct2010":25,"zip_code":10454,"website":"https:\/\/www.grownyc.org\/compost-go","notes":null},{"borough":"Bronx","councildist":17,"food_scrap_drop_off_site":"Mary Mitchell Center","hours_from":"06:00 PM","hours_to":"10:00 AM","latitude":40.8449401855,"location":"2007 Mapes Ave, Bronx 10460 at E 178th St","longitude":-73.8874130249,"ntaname":"East Tremont","operation_day":"Thursday","open_months":"Year Round- following the DOE calendar. Please look at https:\/\/www.schools.nyc.gov\/calendar for closures.","serviced_by":"Mary Mitchell Center","borocd":206,"ct2010":2001,"zip_code":10460,"website":"http:\/\/themarymitchellfyc.org\/","notes":null},{"borough":"Manhattan","councildist":2,"food_scrap_drop_off_site":"CLOSED FOR SEASON: Peach Tree Garden","hours_from":"8pm","hours_to":"1pm","latitude":40.7216758728,"location":"236 East 2nd Street","longitude":-73.9820175171,"ntaname":"Lower East Side","operation_day":"Sunday","open_months":"Seasonal, April-October","serviced_by":"Peach Tree Garden","borocd":103,"ct2010":1001,"zip_code":10009,"website":null,"notes":null},{"borough":"Manhattan","councildist":9,"food_scrap_drop_off_site":"Harlem Grown","hours_from":"5pm","hours_to":"9am","latitude":40.8138046265,"location":"118 W 134th St","longitude":-73.942817688,"ntaname":"Central Harlem North-Polo Grounds","operation_day":"Thursday","open_months":"Year Round","serviced_by":"Harlem Grown","borocd":110,"ct2010":1000,"zip_code":10030,"website":"http:\/\/www.harlemgrown.org\/","notes":null},{"borough":"Queens","councildist":20,"food_scrap_drop_off_site":"Queens Botanical Garden Public Food Scrap Drop-Off","hours_from":"4:30 PM(Nov-Mar),06:00PM(Apr-Oct)","hours_to":"08:00 AM","latitude":40.7517318726,"location":"Parking Garden at QBG\n42-80 Crommelin Avenue, Flushing, NY 11355","longitude":-73.8300018311,"ntaname":"Flushing","operation_day":"Fridays","open_months":"Year Round","serviced_by":"NYC Compost Project","borocd":407,"ct2010":1004,"zip_code":11355,"website":"https:\/\/queensbotanical.org","notes":null},{"borough":"Queens","councildist":21,"food_scrap_drop_off_site":"OPENING JUNE 21: Corona Greenmarket","hours_from":"03:00 PM","hours_to":"08:00 AM","latitude":40.7498703003,"location":"Corona Plaza, Roosevelt Ave at 103 Street, Queens","longitude":-73.8627243042,"ntaname":"North Corona","operation_day":"Fridays","open_months":"Seasonal Market, July-November","serviced_by":"GrowNYC","borocd":403,"ct2010":405,"zip_code":11368,"website":"http:\/\/www.grownyc.org\/greenmarket\/queens\/corona","notes":null},{"borough":"Bronx","councildist":17,"food_scrap_drop_off_site":"The Point CDC","hours_from":"6pm","hours_to":"10am","latitude":40.8182220459,"location":"940 Garrison Avenue","longitude":-73.8904647827,"ntaname":"Hunts Point","operation_day":"Wednesday","open_months":"Year Round","serviced_by":"The Point CDC","borocd":202,"ct2010":2005,"zip_code":10474,"website":"thepoint.org","notes":null},{"borough":"Manhattan","councildist":9,"food_scrap_drop_off_site":"Garden of Love","hours_from":"6pm","hours_to":"10am","latitude":40.804397583,"location":"302 West 116 Street","longitude":-73.9560470581,"ntaname":"Central Harlem South","operation_day":"Sunday","open_months":"Year Round","serviced_by":"Garden of Love","borocd":110,"ct2010":2000,"zip_code":10026,"website":null,"notes":null},{"borough":"Manhattan","councildist":4,"food_scrap_drop_off_site":"OPEN FOR SEASON: Bryant Park","hours_from":"2:30pm","hours_to":"12:30pm","latitude":40.7541770935,"location":"6th Avenue and 41st Sreet","longitude":-73.9845962524,"ntaname":"Midtown-Midtown South","operation_day":"Tuesday","open_months":"Seasonal, May-November","serviced_by":"Bryant Park Corporation","borocd":105,"ct2010":84,"zip_code":10018,"website":"http:\/\/bryantpark.org\/programs\/waste-sorting-concierge","notes":"For schedule, holiday, and inclement weather updates, please visit: http:\/\/bryantpark.org\/programs\/waste-sorting-concierge"},{"borough":"Queens","councildist":20,"food_scrap_drop_off_site":"Queens Botanical Garden Public Food Scrap Drop-Off","hours_from":"4:30 PM(Nov-Mar),06:00PM(Apr-Oct)","hours_to":"08:00 AM","latitude":40.7517318726,"location":"Parking Garden at QBG\n42-80 Crommelin Avenue, Flushing, NY 11355","longitude":-73.8300018311,"ntaname":"Flushing","operation_day":"Wednesdays","open_months":"Year Round","serviced_by":"NYC Compost Project","borocd":407,"ct2010":1004,"zip_code":11355,"website":"https:\/\/queensbotanical.org","notes":null},{"borough":null,"councildist":17,"food_scrap_drop_off_site":"OPENING JULY 7: La Familia Verde Farmer's Market","hours_from":"1pm","hours_to":"9am","latitude":40.8464851379,"location":"E Tremont Ave, between Lafontaine and Arthur Aves, Bronx 10457","longitude":-73.8943405151,"ntaname":"Claremont-Bathgate","operation_day":"Tuesday","open_months":"Seasonal, July-November","serviced_by":"GrowNYC","borocd":206,"ct2010":395,"zip_code":10457,"website":"https:\/\/www.grownyc.org\/compost\/locations; http:\/\/www.lafamiliaverde.org\/","notes":null},{"borough":"Bronx","councildist":11,"food_scrap_drop_off_site":"Church of the Mediator\/La Iglesia El Mediador","hours_from":"10:00 AM","hours_to":"08:00 AM","latitude":40.8798065186,"location":"W 231 St & Kingsbridge Ave","longitude":-73.906578064,"ntaname":"Spuyten Duyvil-Kingsbridge","operation_day":"Tuesdays","open_months":"Year Round","serviced_by":"Serviced\/Managed by Volunteers from Church of the Mediator","borocd":208,"ct2010":289,"zip_code":10463,"website":"churchofthemediator.org","notes":null},{"borough":"Manhattan","councildist":1,"food_scrap_drop_off_site":"Commuter Composting at Grand Street & Clinton Street","hours_from":"11am","hours_to":"8am","latitude":40.7159538269,"location":"Grand Street & Clinton Street (SW corner), Manhattan","longitude":-73.9867248535,"ntaname":"Lower East Side","operation_day":"Friday","open_months":"Year Round","serviced_by":"NYC Compost Project","borocd":103,"ct2010":1401,"zip_code":10002,"website":"www.lesecologycenter.org","notes":null},{"borough":"Queens","councildist":24,"food_scrap_drop_off_site":"Commuter Composting at Briarwood E\/F","hours_from":"09:30 AM","hours_to":"07:30 AM","latitude":40.7099876404,"location":"Briarwood E\/F Subway Station Entrance (North Side of Queens Boulevard)","longitude":-73.8199615479,"ntaname":"Kew Gardens","operation_day":"Tuesdays","open_months":"Year Round","serviced_by":"NYC Compost Project","borocd":408,"ct2010":22001,"zip_code":11435,"website":null,"notes":null},{"borough":"Bronx","councildist":17,"food_scrap_drop_off_site":"The Point CDC","hours_from":"6pm","hours_to":"10am","latitude":40.8182220459,"location":"940 Garrison Avenue","longitude":-73.8904647827,"ntaname":"Hunts Point","operation_day":"Friday","open_months":"Year Round","serviced_by":"The Point CDC","borocd":202,"ct2010":2005,"zip_code":10474,"website":"thepoint.org","notes":null},{"borough":"Brooklyn","councildist":37,"food_scrap_drop_off_site":"Irving Square Park","hours_from":"11:00 AM","hours_to":"08:00 AM","latitude":40.6929855347,"location":"Corner of Halsey and Knickerbocker","longitude":-73.9083023071,"ntaname":"Bushwick North","operation_day":"Mondays","open_months":"Year Round","serviced_by":"NYC Compost Project","borocd":304,"ct2010":437,"zip_code":11207,"website":null,"notes":null},{"borough":"Staten Island","councildist":49,"food_scrap_drop_off_site":"St. George Greenmarket","hours_from":"01:00 PM","hours_to":"08:00 AM","latitude":40.6415863037,"location":"St Marks Pl & Hyatt St\nStaten Island, NY 10301","longitude":-74.0778961182,"ntaname":"West New Brighton-New Brighton-St. George","operation_day":"Saturdays","open_months":"Year Round","serviced_by":"GrowNYC","borocd":501,"ct2010":3,"zip_code":10301,"website":"http:\/\/www.grownyc.org\/compost\/locations","notes":null},{"borough":"Brooklyn","councildist":35,"food_scrap_drop_off_site":"Franklin Avenue 2\/3\/4\/5 (Closed Wednesday, 7\/3 - Independence Day)","hours_from":"10:00 AM","hours_to":"08:00 AM","latitude":40.6706581116,"location":"Franklin Avenue & Eastern Parkway","longitude":-73.9579772949,"ntaname":"Crown Heights South","operation_day":"Wednesdays","open_months":"Year Round","serviced_by":"NYC Compost Project","borocd":308,"ct2010":217,"zip_code":11238,"website":null,"notes":null},{"borough":"Manhattan","councildist":6,"food_scrap_drop_off_site":"Tucker Square Greenmarket (Closed Thursday, 7\/4 - Independence Day)","hours_from":"1pm","hours_to":"8am","latitude":40.7737197876,"location":"Columbus Ave & W 66th St, New York, NY 10023","longitude":-73.9819030762,"ntaname":"Lincoln Square","operation_day":"Saturday","open_months":"Year Round","serviced_by":"GrowNYC","borocd":107,"ct2010":149,"zip_code":10023,"website":"http:\/\/www.grownyc.org\/compost\/locations","notes":null},{"borough":"Bronx","councildist":8,"food_scrap_drop_off_site":"OPEN FOR SEASON: Target Bronx Community Garden","hours_from":"4pm","hours_to":"12pm","latitude":40.8328094482,"location":"1025 Anderson Avenue","longitude":-73.9270248413,"ntaname":"Highbridge","operation_day":"Saturday","open_months":"Seasonal","serviced_by":"Target Bronx Community Garden\/ NYRP","borocd":204,"ct2010":2000,"zip_code":10452,"website":"www.nyrp.org","notes":null},{"borough":"Queens","councildist":26,"food_scrap_drop_off_site":"Commuter Composting at Vernon Jackson 7","hours_from":"11:00 AM","hours_to":"08:00 AM","latitude":40.742729187,"location":"Vernon Blvd & 50th Ave, Long Island City, NY 11101 ?","longitude":-73.9540481567,"ntaname":"Hunters Point-Sunnyside-West Maspeth","operation_day":"Tuesdays","open_months":"Year Round","serviced_by":"NYC Compost Project","borocd":402,"ct2010":7,"zip_code":11101,"website":"http:\/\/www.bigreuse.org\/compost\/drop-off-list\/","notes":null},{"borough":"Manhattan","councildist":9,"food_scrap_drop_off_site":"Harlem Grown","hours_from":"3pm","hours_to":"11am","latitude":40.8138046265,"location":"118 W 134th St","longitude":-73.942817688,"ntaname":"Central Harlem North-Polo Grounds","operation_day":"Saturday","open_months":"Year Round","serviced_by":"Harlem Grown","borocd":110,"ct2010":1000,"zip_code":10030,"website":"http:\/\/www.harlemgrown.org\/","notes":null},{"borough":"Brooklyn","councildist":38,"food_scrap_drop_off_site":"Red Hook Community Farm","hours_from":"12:00 PM","hours_to":"09:00 AM","latitude":40.6722259521,"location":"Otsego Street and Beard Street","longitude":-74.0110092163,"ntaname":"Carroll Gardens-Columbia Street-Red Hook","operation_day":"Fridays","open_months":"Year Round","serviced_by":"NYC Compost Project","borocd":306,"ct2010":53,"zip_code":11231,"website":null,"notes":null},{"borough":"Manhattan","councildist":5,"food_scrap_drop_off_site":"82nd St Greenmarket [St. Stevens]","hours_from":"1pm","hours_to":"9am","latitude":40.7742919922,"location":"82nd Street between 1st and York Avenues","longitude":-73.9512634277,"ntaname":"Yorkville","operation_day":"Saturday","open_months":"Year Round","serviced_by":"GrowNYC","borocd":108,"ct2010":136,"zip_code":10028,"website":"http:\/\/www.grownyc.org\/compost\/locations","notes":null},{"borough":"Manhattan","councildist":6,"food_scrap_drop_off_site":"OPEN FOR SEASON: 57th St Greenmarket","hours_from":"2pm","hours_to":"8am","latitude":40.769115448,"location":"10th Avenue & West 57th Street","longitude":-73.9885559082,"ntaname":"Clinton","operation_day":"Saturday","open_months":"Seasonal Market, June-December","serviced_by":"GrowNYC","borocd":104,"ct2010":135,"zip_code":10019,"website":"http:\/\/www.grownyc.org\/compost\/locations","notes":null},{"borough":"Manhattan","councildist":1,"food_scrap_drop_off_site":"OPEN FOR SEASON: Governors Islands \ufffdZero Waste Stations\ufffd","hours_from":"05:00 PM","hours_to":"11:00 AM","latitude":40.6869544983,"location":"Several locations throughout Governors Island","longitude":-74.0204315186,"ntaname":"park-cemetery-etc-Manhattan","operation_day":"Everyday","open_months":"Seasonal, May-September","serviced_by":"NYC Compost Project","borocd":101,"ct2010":5,"zip_code":10004,"website":"https:\/\/earthmatter.org\/nyc-compost-project\/","notes":null},{"borough":"Manhattan","councildist":9,"food_scrap_drop_off_site":"Cathedral Parkway (110th St)","hours_from":"10:15 AM","hours_to":"06:45 AM","latitude":40.800365448,"location":"110th & Central Park West - SW Corner","longitude":-73.9583358765,"ntaname":"park-cemetery-etc-Manhattan","operation_day":"Wednesdays","open_months":"Year Round","serviced_by":"GrowNYC","borocd":110,"ct2010":216,"zip_code":10029,"website":"https:\/\/www.grownyc.org\/compost-go","notes":null},{"borough":"Brooklyn","councildist":39,"food_scrap_drop_off_site":"Big Reuse Brooklyn","hours_from":"06:00 PM","hours_to":"10:00 AM","latitude":40.6717224121,"location":"One 12th St, Brooklyn, NY, 11215","longitude":-73.996711731,"ntaname":"Park Slope-Gowanus","operation_day":"Fridays","open_months":"Year Round","serviced_by":"NYC Compost Project & Community Partners","borocd":306,"ct2010":119,"zip_code":11215,"website":"http:\/\/www.bigreuse.org\/compost\/drop-off-list\/","notes":null},{"borough":"Brooklyn","councildist":36,"food_scrap_drop_off_site":"Mt. Lebanon Fresh Food Box","hours_from":"02:30 PM","hours_to":"11:30 AM","latitude":40.6832046509,"location":"462 Halsey Street","longitude":-73.9356613159,"ntaname":"Stuyvesant Heights","operation_day":"Saturdays","open_months":"Seasonal, June-November","serviced_by":"GrowNYC","borocd":303,"ct2010":4000,"zip_code":11233,"website":"https:\/\/www.grownyc.org\/greenmarketco\/foodbox; http:\/\/www.462halsey.com\/compost\/","notes":null},{"borough":"Manhattan","councildist":3,"food_scrap_drop_off_site":"Saint Peter's Church","hours_from":"dusk","hours_to":"dawn","latitude":40.744052887,"location":"346 West 20th Street","longitude":-74.0020065308,"ntaname":"Hudson Yards-Chelsea-Flatiron-Union Square","operation_day":"Everyday","open_months":"Year Round","serviced_by":"Saint Peter's Church","borocd":104,"ct2010":2000,"zip_code":10011,"website":"www.stpeterschelsea.org","notes":null},{"borough":"Manhattan","councildist":7,"food_scrap_drop_off_site":"The Brotherhood\/Sister Sol","hours_from":"7pm","hours_to":"11am","latitude":40.8243026733,"location":"512 West 143rd Street","longitude":-73.9500045776,"ntaname":"Hamilton Heights","operation_day":"Monday","open_months":"Year Round","serviced_by":"The Brotherhood\/Sister Sol","borocd":109,"ct2010":2001,"zip_code":10031,"website":"https:\/\/brotherhood-sistersol.org\/","notes":null},{"borough":"Manhattan","councildist":9,"food_scrap_drop_off_site":"FACES NY at 116th","hours_from":"2pm","hours_to":"10am","latitude":40.8021583557,"location":"114 West 116th, 10026","longitude":-73.9507446289,"ntaname":"Central Harlem South","operation_day":"Monday","open_months":"Year Round","serviced_by":"FACES NY","borocd":110,"ct2010":2000,"zip_code":10026,"website":"www.facesny.org","notes":null},{"borough":"Queens","councildist":26,"food_scrap_drop_off_site":"Commuter Composting at 21st Street F train","hours_from":"11:00 AM","hours_to":"08:00 AM","latitude":40.7539978027,"location":"NW Corner of 21st street at 41st Ave","longitude":-73.9424285889,"ntaname":"Queensbridge-Ravenswood-Long Island City","operation_day":"Tuesdays","open_months":"Year Round","serviced_by":"NYC Compost Project","borocd":401,"ct2010":25,"zip_code":11101,"website":null,"notes":null},{"borough":"Bronx","councildist":11,"food_scrap_drop_off_site":"Praxis Housing","hours_from":"12:00 PM","hours_to":"9:00 AM","latitude":40.8968276978,"location":"4339 White Plains Road","longitude":-73.8559417725,"ntaname":"Woodlawn-Wakefield","operation_day":"Wednesdays","open_months":"Year Round","serviced_by":"Praxis Housing","borocd":212,"ct2010":2000,"zip_code":10466,"website":null,"notes":null},{"borough":"Bronx","councildist":17,"food_scrap_drop_off_site":"Mary Mitchell Center","hours_from":"06:00 PM","hours_to":"10:00 AM","latitude":40.8449401855,"location":"2007 Mapes Ave, Bronx 10460 at E 178th St","longitude":-73.8874130249,"ntaname":"East Tremont","operation_day":"Tuesday","open_months":"Year Round- following the DOE calendar. Please look at https:\/\/www.schools.nyc.gov\/calendar for closures.","serviced_by":"Mary Mitchell Center","borocd":206,"ct2010":2001,"zip_code":10460,"website":"http:\/\/themarymitchellfyc.org\/","notes":null},{"borough":"Manhattan","councildist":4,"food_scrap_drop_off_site":"Dag Hammarskjold Plaza Greenmarket (Closed Thursday, 7\/4 - Independence Day)","hours_from":"3pm","hours_to":"8am","latitude":40.7529983521,"location":"East 47 St at 2 Ave,New York,NY, 10017","longitude":-73.9698867798,"ntaname":"Turtle Bay-East Midtown","operation_day":"Wednesday","open_months":"Year Round","serviced_by":"GrowNYC","borocd":106,"ct2010":90,"zip_code":10017,"website":"http:\/\/www.grownyc.org\/compost\/locations","notes":null},{"borough":"Queens","councildist":22,"food_scrap_drop_off_site":"Hellgate Farm","hours_from":"08:00 PM","hours_to":"08:00 AM","latitude":40.7688941956,"location":"14-33 30th Drive","longitude":-73.9299468994,"ntaname":"Old Astoria","operation_day":"Sundays","open_months":"Year Round","serviced_by":"Hellgate Farm","borocd":401,"ct2010":1004,"zip_code":11102,"website":"https:\/\/www.hellgatefarm.com\/","notes":null},{"borough":"Manhattan","councildist":7,"food_scrap_drop_off_site":"The Brotherhood\/Sister Sol","hours_from":"7pm","hours_to":"11am","latitude":40.8243026733,"location":"512 West 143rd Street","longitude":-73.9500045776,"ntaname":"Hamilton Heights","operation_day":"Thursday","open_months":"Year Round","serviced_by":"The Brotherhood\/Sister Sol","borocd":109,"ct2010":2001,"zip_code":10031,"website":"https:\/\/brotherhood-sistersol.org\/","notes":null},{"borough":"Manhattan","councildist":2,"food_scrap_drop_off_site":"Union Square Greenmarket","hours_from":"5pm","hours_to":"8am","latitude":40.7368202209,"location":"E 17th St & Union Square E, New York, NY","longitude":-73.9900436401,"ntaname":"Hudson Yards-Chelsea-Flatiron-Union Square","operation_day":"Monday","open_months":"Year Round","serviced_by":"NYC Compost Project","borocd":105,"ct2010":50,"zip_code":10003,"website":"http:\/\/www.grownyc.org\/compost\/locations","notes":null},{"borough":"Queens","councildist":31,"food_scrap_drop_off_site":"OPEN FOR SEASON: Rockaway Waterfront Alliance R.I.S.E.","hours_from":"07:00 PM","hours_to":"04:00 PM","latitude":40.5918769836,"location":"5803 Rockaway Beach Blvd.","longitude":-73.7882614136,"ntaname":"Hammels-Arverne-Edgemere","operation_day":"Wednesdays","open_months":"Seasonal, July-December","serviced_by":"Rockaway Waterfront Alliance R.I.S.E.","borocd":414,"ct2010":1029,"zip_code":11692,"website":"www.rwalliance.org","notes":null},{"borough":"Manhattan","councildist":5,"food_scrap_drop_off_site":"Lenox Hill Neighborhood House Fresh Food Box","hours_from":"6:30pm","hours_to":"3:30pm","latitude":40.766494751,"location":"1st Avenue Between 70th St and 71st St","longitude":-73.9569549561,"ntaname":"Lenox Hill-Roosevelt Island","operation_day":"Tuesday","open_months":"Year Round","serviced_by":"GrowNYC","borocd":108,"ct2010":124,"zip_code":10021,"website":"http:\/\/www.grownyc.org\/greenmarketco\/foodbox","notes":null},{"borough":"Brooklyn","councildist":33,"food_scrap_drop_off_site":"Park Church Co-op","hours_from":"09:00 PM","hours_to":"06:00 PM","latitude":40.724822998,"location":"Park Church Co-op, 129 Russell Street Brooklyn","longitude":-73.9446563721,"ntaname":"Greenpoint","operation_day":"Wednesdays","open_months":"Year Round","serviced_by":"Park Church Co-op","borocd":301,"ct2010":4001,"zip_code":11222,"website":"parkchurchcoop.org","notes":null},{"borough":"Brooklyn","councildist":43,"food_scrap_drop_off_site":"4th Avenue Presbyterian Church","hours_from":"Dusk","hours_to":"05:00PM","latitude":40.635471344,"location":"6753 4th Avenue","longitude":-74.0227966309,"ntaname":"Bay Ridge","operation_day":"Fridays","open_months":"Year Round","serviced_by":"4th Avenue Presbyterian Church","borocd":310,"ct2010":1004,"zip_code":11220,"website":"http:\/\/www.fourthavenuepresbyterian.org\/","notes":null},{"borough":"Manhattan","councildist":9,"food_scrap_drop_off_site":"127 Street & Malcolm X Food Scrap Drop Off Site","hours_from":"dusk","hours_to":"dawn","latitude":40.8089942932,"location":"77 West 127th Street between Malcolm X Boulevard and 5th Ave","longitude":-73.9437789917,"ntaname":"Central Harlem North-Polo Grounds","operation_day":"Everyday","open_months":"Year Round","serviced_by":"NYC Compost Project","borocd":110,"ct2010":3000,"zip_code":10027,"website":"http:\/\/www.lesecologycenter.org\/programs\/compost\/compost-drop-off-locations\/","notes":null},{"borough":"Brooklyn","councildist":33,"food_scrap_drop_off_site":"Brooklyn Borough Hall Greenmarket (Closed Thursday, 7\/4 - Independence Day)","hours_from":"04:00 PM","hours_to":"08:00 AM","latitude":40.6937217712,"location":"Court St & Montague St, Brooklyn, NY 11201","longitude":-73.9904556274,"ntaname":"Brooklyn Heights-Cobble Hill","operation_day":"Saturdays","open_months":"Year Round","serviced_by":"GrowNYC","borocd":302,"ct2010":9,"zip_code":11201,"website":"http:\/\/www.grownyc.org\/compost\/locations","notes":null},